index,unitid,chronname,city,state,level,control,basic,hbcu,flagship,long_x,lat_y,site,student_count,awards_per_value,awards_per_state_value,awards_per_natl_value,exp_award_value,exp_award_state_value,exp_award_natl_value,exp_award_percentile,ft_pct,fte_value,fte_percentile,med_sat_value,med_sat_percentile,aid_value,aid_percentile,endow_value,endow_percentile,grad_100_value,grad_100_percentile,grad_150_value,grad_150_percentile,pell_value,pell_percentile,retain_value,retain_percentile,ft_fac_value,ft_fac_percentile,vsa_year,vsa_grad_after4_first,vsa_grad_elsewhere_after4_first,vsa_enroll_after4_first,vsa_enroll_elsewhere_after4_first,vsa_grad_after6_first,vsa_grad_elsewhere_after6_first,vsa_enroll_after6_first,vsa_enroll_elsewhere_after6_first,vsa_grad_after4_transfer,vsa_grad_elsewhere_after4_transfer,vsa_enroll_after4_transfer,vsa_enroll_elsewhere_after4_transfer,vsa_grad_after6_transfer,vsa_grad_elsewhere_after6_transfer,vsa_enroll_after6_transfer,vsa_enroll_elsewhere_after6_transfer,similar,state_sector_ct,carnegie_ct,counted_pct,nicknames,cohort_size,aid_value_scaled
533,134121,Southern Career College,Jacksonville,Florida,4-year,Private,Associates--Private For-profit,,,-81.550021,30.32563,www.usmf.edu,99,36.1,18.1,24.6,43237,46698,38763,49,100.0,111,2,,,9890.0,99.0,,,,,,,89.7,99.0,,,42.9,87.0,,,,,,,,,,,,,,,,,,427982|179511|158440|128179|194967|408844|127839|214838|383950|438285|237978|101958|189583|444042|242972|441502|439482|441399|242112|414461,48,517,,,,0.30060919168512684
3399,438294,Florida College of Natural Health-Sarasota,Bradenton,Florida,2-year,Private,Associates--Private For-profit,,,-82.477585,27.49489,www.steinered.com/,127,14.6,34.7,32.8,0,25317,24795,0,100.0,210,16,,,3317.0,10.0,,,24.5,27.0,71.4,75.0,55.0,25.0,72.5,64.0,11.1,6.0,,,,,,,,,,,,,,,,,,205568|369516|249609|368805|143075|151209|178183|136075|237996|202435|151616|210359|148399|212090|439738|206631|410283|177302|127787|151944,39,517,,,49.0,-0.7234119512051783
2602,222178,Abilene Christian University,Abilene,Texas,4-year,Private,Masters Colleges and Universities--larger programs,,,-99.70954,32.46915,www.acu.edu,3727,21.2,23.3,22.5,83477,84271,101725,54,94.2,3452,86,1087.0,61.0,12674.0,43.0,82162.0,85.0,36.7,40.0,56.6,53.0,23.5,21.0,79.4,62.0,91.7,92.0,,,,,,,,,,,,,,,,,,192703|236230|137546|196112|201548|140669|159416|220613|186371|174233|141097|133553|215099|176053|177214|164562|162760|173160|204936|230807,44,386,82.6|07,,884.0,0.7343342581398065
2906,236656,South Puget Sound Community College,Olympia,Washington,2-year,Public,Associates--Public Rural-serving Large,,,-122.929405,47.023472,www.spscc.ctc.edu,4938,28.0,20.5,16.5,26295,27639,37780,19,56.0,3981,57,,,4808.0,76.0,1291.0,64.0,17.6,79.0,28.5,77.0,31.0,23.0,60.0,60.0,38.8,66.0,,,,,,,,,,,,,,,,,,130004|146506|233949|105349|239372|146205|136516|155195|148256|226806|229841|188137|194240|104577|148380|236708|190840|137096|403478|126207,25,128,18.5|10,,459.0,-0.4911260050543423
2172,206613,Wright State University Lake Campus,Celina,Ohio,4-year,Public,Associates--Public 2-year colleges under 4-year universities,,,-84.509383,40.547528,www.wright.edu,1096,16.6,19.5,21.5,43825,74213,66436,19,66.5,859,3,,,5643.0,41.0,,,19.3,42.0,31.6,19.0,35.7,42.0,66.9,26.0,,,,,,,,,,,,,,,,,,,,233338|188003|187994|152637|141839|188021|187666|106449|383996|141990|201955|141802|204662|383190|187976|180045|200846|207397|180249|441760,34,47,66.1|07,,114.0,-0.36103964352788487
479,130916,Delaware Technical and Community College Stanton-Wilmington Campus,Wilmington,Delaware,2-year,Public,Associates--Public Urban-serving Multicampus,,,-75.552162,39.740259,https://www.dtcc.edu/our-campuses/wilmington,7030,12.4,16.0,16.5,77227,62470,37780,94,37.2,4972,67,,,3077.0,19.0,,,4.4,19.0,9.2,8.0,32.5,27.0,59.8,59.0,34.8,57.0,,,,,,,,,,,,,,,,,,101505|105428|232414|236513|117867|113096|179113|125471|105145|117247|120421|104708|117724|114266|181303|160667|122339|144184|227766|123527,3,125,51.5|10,,964.0,-0.7608020431409265
3595,447014,Daytona College,Ormond Beach,Florida,2-year,Private,Associates--Private For-profit,,,-81.080155,29.270088,daytonacollege.edu,327,36.0,34.7,32.8,18121,25317,24795,36,100.0,394,39,,,4080.0,37.0,,,55.6,70.0,55.6,37.0,78.7,70.0,90.3,98.0,39.1,49.0,,,,,,,,,,,,,,,,,,456180|446093|375939|446677|451981|445559|450270|450225|447102|203386|451750|446899|437662|454209|451705|421878|450252|377421|439127|448503,39,517,,,169.0,-0.6045426172594454
1468,178369,Missouri Valley College,Marshall,Missouri,4-year,Private,Baccalaureate Colleges--Diverse Fields,,,-93.190236,39.108655,www.moval.edu,1656,13.1,24.5,22.5,57206,86885,101725,29,82.4,1496,53,920.0,9.0,12641.0,42.0,3316.0,11.0,14.5,7.0,24.9,6.0,46.4,70.0,43.6,3.0,57.3,56.0,,,,,,,,,,,,,,,,,,191621|233611|220206|214883|180692|153621|139630|106713|218414|143288|127680|440758|167251|233912|154518|231086|154855|181853|213303|228468,34,343,78.2|07,,441.0,0.7291931204986412
2592,221856,Tennessee Temple University,Chattanooga,Tennessee,4-year,Private,Theological seminaries- Bible colleges- and other faith-related institutions,,,-85.27742,35.032456,www.tntemple.edu,743,14.0,20.9,22.5,58565,106812,101725,30,60.7,493,19,878.0,5.0,9396.0,26.0,1111.0,4.0,9.6,4.0,17.5,4.0,79.1,96.0,66.7,26.0,16.3,5.0,,,,,,,,,,,,,,,,,,205124|199315|197744|193247|193070|176789|139153|444778|207856|123280|201858|137777|197647|149329|181093|217925|100690|441511|137953|220473,38,106,59.2|07,,114.0,0.22364791911737836
3797,475291,Brown College-Brooklyn Center,Brooklyn Center,Minnesota,4-year,Private,Not applicable- not in Carnegie universe,,,-93.305681,45.06468,www.browncollege.edu/,144,22.1,19.6,24.6,48074,43085,38763,56,25.7,189,6,,,5379.0,82.0,,,34.8,78.0,47.8,85.0,86.5,97.0,,,6.9,10.0,,,,,,,,,,,,,,,,,,,28,81,,,23.0,-0.4021687446572079
2858,234137,Virginia University of Lynchburg,Lynchburg,Virginia,4-year,Private,Theological seminaries- Bible colleges- and other faith-related institutions,X,,-79.151518,37.395135,www.vul.edu,493,12.6,19.4,22.5,88042,59113,101725,59,52.5,427,16,,,23737.0,88.0,532.0,2.0,36.4,40.0,45.5,32.0,96.4,99.0,55.8,10.0,100.0,95.0,,,,,,,,,,,,,,,,,,,28,106,6.9|07,,11.0,2.457861704328068
2530,219374,Sinte Gleska University,Mission,South Dakota,4-year,Private,Tribal Colleges,,,-100.622549,43.298878,www.sintegleska.edu,577,17.4,21.9,22.5,95547,70861,101725,65,43.8,591,22,,,3122.0,2.0,4331.0,14.0,0.0,0.0,0.0,0.0,55.2,82.0,75.0,49.0,100.0,95.0,,,,,,,,,,,,,,,,,,155140|219408|187745|200466|180212|413617|366340|380377|200208|105297|180647|187596|260372|200527|180054|434016|180328|200086|413626|434751,6,33,32.2|07,,11.0,-0.7537914009029737
3432,440129,High-Tech Institute-Dallas,Irving,Texas,2-year,Private,Not applicable- not in Carnegie universe,,,-96.991122,32.870783,https://www.anthem.edu,288,16.6,35.1,32.8,36156,18614,24795,76,100.0,463,48,,,4104.0,38.0,,,69.1,86.0,75.7,82.0,65.6,41.0,71.7,61.0,46.2,59.0,,,,,,,,,,,,,,,,,,,37,81,,,181.0,-0.6008036080658705
564,136358,Palm Beach State College,Lake Worth,Florida,4-year,Public,Associates--Public Suburban-serving Multicampus,,,-80.087104,26.613214,www.palmbeachstate.edu/,29763,23.1,23.9,21.5,20204,34779,66436,5,31.8,19938,88,,,2757.0,1.0,879.0,9.0,,,,,46.9,76.0,,,23.8,2.0,,,,,,,,,,,,,,,,,,170790|127200|163426|153630|177676|183938|187198|225308|173708|366395|244437|208406|167312|226204|160719|448637|171535|172954|104346|126289,36,99,44.9|07,,,-0.8106554990552575
3750,456445,ITT Technical Institute-Charlotte North,Charlotte,North Carolina,4-year,Private,Associates--Private For-profit 4-year Primarily Associates,,,-80.764873,35.338374,www.itt-tech.edu,416,18.0,19.5,24.6,49214,58286,38763,58,77.2,385,27,,,3663.0,14.0,,,,,,,79.9,86.0,,,6.4,9.0,,,,,,,,,,,,,,,,,,,12,83,,,,-0.6695079019978079
2015,200314,Dakota College at Bottineau,Bottineau,North Dakota,2-year,Public,Associates--Public 2-year colleges under 4-year universities,,,-100.441103,48.832505,www.dakotacollege.edu,793,28.4,25.9,16.5,37817,49596,37780,46,46.3,470,3,,,4381.0,65.0,4459.0,92.0,24.1,89.0,28.3,76.0,28.8,18.0,35.2,1.0,24.6,24.0,,,,,,,,,,,,,,,,,,180276|201432|237701|180045|200846|180249|441760|159407|201946|187620|188225|106795|204662|445674|207397|383190|181765|440402|383996|141990,5,47,33.6|10,,191.0,-0.5576492102900277
3759,457022,Herzing University-Toledo,Toledo,Ohio,4-year,Private,Associates--Private For-profit,,,-83.665453,41.639266,www.herzing.edu/,205,19.0,27.6,24.6,36323,43576,38763,36,66.8,288,14,,,4543.0,58.0,,,,,,,84.8,95.0,0.0,0.0,40.0,85.0,,,,,,,,,,,,,,,,,,,24,517,,,,-0.5324108982333976
2364,214625,Pennsylvania State University-New Kensington,New Kensington,Pennsylvania,4-year,Public,Baccalaureate Colleges--Diverse Fields,,,-79.703269,40.55382,www.nk.psu.edu/,680,16.7,21.3,21.5,0,81610,66436,0,77.1,641,1,991.0,35.0,4663.0,17.0,10806.0,80.0,33.8,75.0,55.4,70.0,33.7,35.0,71.4,42.0,49.4,26.0,,,,,,,,,,,,,,,,,,214731|200226|161299|161235|214689|214670|161572|182634|206002|214591|120865|200059|217013|225548|214768|207403|217633|443410|219790|237950,41,343,53.1|07,Penn State New Kensington,157.0,-0.5137158522655235
52,102313,Trenholm State Technical College,Montgomery,Alabama,2-year,Public,Associates--Public Rural-serving Small,X,,-86.343057,32.350109,www.trenholmstate.edu,1351,17.7,15.9,16.5,39149,42194,37780,50,52.6,1275,16,,,3409.0,28.0,,,19.8,84.0,32.7,86.0,61.0,89.0,49.8,18.0,64.4,94.0,,,,,,,,,,,,,,,,,,217989|101462|175519|198640|445018|139621|180081|430795|159984|217837|414911|127778|199449|107549|428392|140997|101949|161484|101994|101602,25,111,38.5|10,,278.0,-0.7090790826298081
2722,228699,Texarkana College,Texarkana,Texas,2-year,Public,Associates--Public Rural-serving Medium,,,-94.078821,33.441916,www.texarkanacollege.edu,4233,18.5,15.0,16.5,34604,40856,37780,39,39.2,2629,42,,,3831.0,44.0,1824.0,73.0,5.4,27.0,22.7,59.0,42.8,52.0,49.8,18.0,48.9,83.0,,,,,,,,,,,,,,,,,,103361|225070|240693|240666|223506|145831|126748|141228|141273|156240|175564|237039|232195|200192|240620|233116|183132|183141|231697|240505,63,289,68.3|10,,538.0,-0.6433348376427841
505,132851,College of Central Florida,Ocala,Florida,4-year,Public,Associates--Public Rural-serving Large,,,-82.175692,29.166079,www.cf.edu,8162,21.6,23.9,21.5,27092,34779,66436,7,37.3,6103,49,,,6649.0,63.0,7699.0,70.0,,,,,54.3,88.0,,,47.9,24.0,,,,,,,,,,,,,,,,,,228158|208390|121707|199333|151023|176071|230861|133508|229355|104425|170541|144564|130907|123217|238759|126119|137759|185509|145707|153445,36,128,35.3|07,,,-0.20431284149720677
3224,405854,Rabbinical College Ohr Shimon Yisroel,Brooklyn,New York,4-year,Private,Theological seminaries- Bible colleges- and other faith-related institutions,,,-73.956537,40.704205,,155,18.6,22.8,22.5,59344,108407,101725,31,100.0,152,5,,,8702.0,23.0,,,0.0,0.0,39.5,21.0,97.3,100.0,58.3,13.0,40.0,32.0,,,,,,,,,,,,,,,,,,241614|197601|192165|199971|375230|439862|124487|441690|197018|156417|189857|194189|417752|194675|196431|126076|192624|194666|200484|198677,116,106,100.0|07,,38.0,0.115528236603173
2312,212674,Gettysburg College,Gettysburg,Pennsylvania,4-year,Private,Baccalaureate Colleges--Arts & Sciences,,,-77.234982,39.836091,www.gettysburg.edu,2524,22.9,22.2,22.5,151519,110403,101725,87,99.7,2772,80,1282.0,90.0,26190.0,92.0,94361.0,86.0,79.8,93.0,83.6,91.0,14.0,4.0,88.2,84.0,75.4,79.0,,,,,,,,,,,,,,,,,,149781|202523|120254|203535|211291|130590|262129|164155|212009|174844|107080|146427|213385|209056|218070|126678|211273|237057|170532|221351,82,252,93.7|07,,694.0,2.840019602321362
12,101116,South University at Montgomery,Montgomery,Alabama,4-year,Private,Baccalaureate/Associates Colleges,,,-86.216488,32.342684,southuniversity.edu,599,15.0,29.1,24.6,76191,17406,38763,81,51.9,577,49,,,4920.0,70.0,,,5.3,10.0,5.3,1.0,71.3,59.0,19.4,1.0,14.6,40.0,,,,,,,,,,,,,,,,,,136288|445355|438902|260293|144883|390701|206817|134149|230630|121381|153418|420006|133465|148335|260910|137801|241720|407285|367909|188465,9,124,23.0|07,,19.0,-0.47367729548432647
1850,196185,State University of New York College at Oneonta,Oneonta,New York,4-year,Public,Masters Colleges and Universities--smaller programs,,,-75.064186,42.466555,www.oneonta.edu,5800,23.1,22.6,21.5,65274,71334,66436,63,97.8,5945,48,1097.0,74.0,5877.0,45.0,6137.0,64.0,53.5,92.0,69.8,89.0,28.7,22.0,87.4,89.0,59.2,43.0,2011.0,53.8,7.0,17.3,14.7,67.6,14.5,0.9,5.4,74.0,7.5,2.5,6.4,75.9,10.0,0.2,3.5,235167|144962|219976|102234|238458|217688|121309|217536|102669|150534|165671|177065|186876|183910|213987|377555|203775|238078|152600|173045,39,106,68.7|07,SUNY Oneonta,1145.0,-0.32458430389053033
964,155399,Kansas State University,Manhattan,Kansas,4-year,Public,Research Universities--high research activity,,,-96.581077,39.188616,www.k-state.edu,20169,19.9,22.3,21.5,81005,65113,66436,81,89.8,18225,85,,,4978.0,25.0,16992.0,88.0,25.9,61.0,59.9,77.0,25.3,15.0,81.2,72.0,85.9,92.0,2011.0,22.7,3.9,44.1,13.1,54.6,10.3,6.0,7.8,47.5,6.0,18.9,8.9,58.2,10.0,4.4,5.7,126562|162928|448822|210331|165024|363916|442189|367839|438629|363907|180832|230816|432223|167729|143048|206084|130493|428259|140951|187967,8,96,63.8|07,KSU|K-State,3251.0,-0.46464135659985395
3114,367884,Hodges University,Naples,Florida,4-year,Private,Masters Colleges and Universities--smaller programs,,,-81.741241,26.277222,www.hodges.edu,1877,23.9,24.2,22.5,54464,71929,101725,26,69.4,1997,66,,,5497.0,11.0,2060.0,7.0,0.0,0.0,11.1,2.0,71.1,92.0,49.1,5.0,49.7,46.0,,,,,,,,,,,,,,,,,,402615|438601|438416|180258|224402|219718|101693|119173|202541|106485|205203|187648|152336|440536|226471|150172|432241|117627|207324|157793,47,106,31.0|07,,27.0,-0.38378528278879837
1378,174747,College of Saint Benedict,Saint Joseph,Minnesota,4-year,Private,Baccalaureate Colleges--Arts & Sciences,,,-94.31902,45.558609,www.csbsju.edu,2051,23.5,23.7,22.5,95986,71920,101725,66,98.2,2025,67,1157.0,78.0,20709.0,81.0,24444.0,59.0,74.5,89.0,81.6,89.0,23.9,21.0,88.8,85.0,85.9,88.0,,,,,,,,,,,,,,,,,,143084|152390|100937|153144|168591|199111|125727|140696|165936|199865|204909|179955|168546|153834|170301|169080|173300|157818|152673|206525,25,252,92.1|07,CSB,538.0,1.9861233777387113
1113,162104,Cecil College,North East,Maryland,2-year,Public,Associates--Public Suburban-serving Single Campus,,,-75.955949,39.642225,www.cecil.edu,2604,20.8,17.6,16.5,75324,62054,37780,93,39.9,1558,23,,,2760.0,11.0,3267.0,88.0,0.0,0.0,10.9,13.0,31.2,23.0,53.1,29.0,17.2,6.0,,,,,,,,,,,,,,,,,,245625|173416|171225|146418|123563|195058|129695|436304|247603|109907|174428|233754|173799|112686|128577|163657|135188|185873|183859|183743,16,106,38.8|10,,258.0,-0.8101881229060607
1073,160649,Southern University at Shreveport-Louisiana,Shreveport,Louisiana,2-year,Public,Associates--Public 2-year colleges under 4-year universities,X,,-93.834559,32.545632,www.susla.edu,3018,16.6,21.9,16.5,63459,15389,37780,88,70.3,2277,37,,,3962.0,51.0,264.0,26.0,15.5,73.0,15.5,30.0,61.4,90.0,43.2,6.0,40.5,69.0,,,,,,,,,,,,,,,,,,106999|420538|107725|107585|187958|203456|188049|179344|107619|203483|440402|181765|445674|106795|188225|159407|201946|201432|187620|180276,16,47,57.7|10,,329.0,-0.6229260791278549
433,127884,Pueblo Community College,Pueblo,Colorado,2-year,Public,Associates--Public Rural-serving Large,,,-104.636396,38.263458,www.pueblocc.edu,6718,16.0,13.5,16.5,15062,26635,37780,4,37.5,5329,70,,,7378.0,98.0,,,15.9,74.0,23.6,62.0,83.1,100.0,59.9,60.0,27.4,33.0,,,,,,,,,,,,,,,,,,157711|104160|101286|150978|203155|102067|167376|145682|151005|236692|193283|205841|176178|153311|115861|101295|226578|169275|209940|181640,14,128,20.5|10,,666.0,-0.09074043724237148
3686,451556,Southwest Career College,El Paso,Texas,4-year,Private,Associates--Private For-profit,,,-106.413168,31.788352,southwestuniversity.edu,1296,27.3,23.9,24.6,4292,47221,38763,6,100.0,1974,87,,,11869.0,100.0,,,,,,,83.5,93.0,85.7,88.0,100.0,98.0,,,,,,,,,,,,,,,,,,133845|442930|119368|232502|133863|447935|449126|440891|382054|364955|444343|450401|452124|437769|450243|443836|126687|384193|227836|450128,22,517,,,,0.6089216581053176
2529,219356,South Dakota State University,Brookings,South Dakota,4-year,Public,Research Universities--high research activity,,,-96.783415,44.31942,www.sdstate.edu/,10969,19.1,18.5,21.5,55192,63713,66436,45,78.8,9649,65,1050.0,59.0,4255.0,9.0,9087.0,75.0,26.7,62.0,56.8,73.0,27.2,19.0,75.9,57.0,83.1,89.0,,,,,,,,,,,,,,,,,,200332|228769|186399|178420|139940|133669|105330|232982|122409|225511|176080|227216|180489|156125|172699|142285|204857|176017|234030|229115,7,96,64.1|07,SDSU,1853.0,-0.5772790085562955
1161,164739,Bentley University,Waltham,Massachusetts,4-year,Private,Masters Colleges and Universities--larger programs,,,-71.220148,42.388798,www.bentley.edu,4247,26.1,22.3,22.5,81692,145629,101725,53,97.5,4041,88,1234.0,87.0,24519.0,89.0,43423.0,74.0,81.1,93.0,87.3,94.0,15.5,7.0,93.5,92.0,60.6,61.0,,,,,,,,,,,,,,,,,,111948|122931|165662|224323|153269|136950|159656|187134|110422|195003|191931|219709|227863|140447|163046|217402|206622|197869|192819|236595,63,386,96.7|07,,927.0,2.579691087218715
3415,439145,Pierce College District,Puyallup,Washington,2-year,Public,Associates--Public Suburban-serving Multicampus,,,-122.272365,47.156328,www.pierce.ctc.edu/,3396,22.6,20.5,16.5,34828,27639,37780,40,44.7,2529,40,,,5856.0,90.0,36.0,5.0,12.3,63.0,20.1,50.0,30.4,21.0,51.2,22.0,98.1,98.0,,,,,,,,,,,,,,,,,,167525|232450|166647|234951|183877|214111|235431|118347|235343|112826|233310|162122|127909|111920|113236|117894|144944|119216|235237|172963,25,99,12.9|10,,204.0,-0.3278559369349083
3518,443854,"Everest College at Arlington, Tex.",Arlington,Texas,2-year,Private,Associates--Private For-profit,,,-97.067911,32.74435,www.everest.edu/campus/arlington_mid_cities_,643,52.4,35.1,32.8,23587,18614,24795,52,93.6,938,77,,,4130.0,40.0,,,54.5,69.0,62.0,53.0,72.7,57.0,70.8,58.0,41.4,53.0,,,,,,,,,,,,,,,,,,443438|193201|157696|442037|445230|230472|213002|136011|366270|202204|217244|122834|441928|262457|118259|445197|189565|154776|445258|203739,37,517,,,635.0,-0.596753014772831
1268,169992,Gogebic Community College,Ironwood,Michigan,2-year,Public,Associates--Public Rural-serving Small,,,-90.165592,46.471893,www.gogebic.edu,1099,30.2,18.2,16.5,36835,40211,37780,44,58.9,832,8,,,4068.0,54.0,3794.0,91.0,18.1,80.0,30.4,83.0,54.6,80.0,64.2,78.0,84.2,98.0,,,,,,,,,,,,,,,,,,101499|142179|198905|199625|155052|158088|180373|160366|141307|219189|162609|158583|160560|203331|136145|232052|366447|198084|107974|159692,30,111,57.8|10,,270.0,-0.6064121218562327
3542,445115,Le Cordon Bleu College of Culinary Arts Las Vegas,Las Vegas,Nevada,2-year,Private,Associates--Private For-profit,,,-115.312552,36.188062,www.chefs.edu/las-vegas,605,28.4,27.7,32.8,27153,23966,24795,61,100.0,900,77,,,4800.0,67.0,,,42.2,54.0,55.2,36.0,61.4,31.0,53.6,16.0,50.0,63.0,,,,,,,,,,,,,,,,,,251075|438966|214290|225858|404365|247065|414850|173489|404912|445610|440174|445090|123679|384209|192509|246974|438869|154767|440271|205887,6,517,,,393.0,-0.49237234145220055
429,127778,Otero Junior College,La Junta,Colorado,2-year,Public,Associates--Public Rural-serving Small,,,-103.544779,37.971184,www.ojc.edu,1449,22.0,13.5,16.5,32469,26635,37780,34,46.9,1167,14,,,4753.0,75.0,421.0,36.0,25.4,90.0,30.0,81.0,48.6,67.0,53.1,29.0,46.7,80.0,,,,,,,,,,,,,,,,,,414911|107549|140997|161484|217837|101994|368911|141006|430795|159984|198640|445018|139621|180081|199449|428392|218955|101949|101602|106883,14,111,28.7|10,,283.0,-0.4996945677896179
1425,176372,University of Southern Mississippi,Hattiesburg,Mississippi,4-year,Public,Research Universities--high research activity,,,-89.33791,31.327499,www.usm.edu,12475,20.9,19.0,21.5,51149,62228,66436,33,86.9,12055,73,1082.0,70.0,5435.0,36.0,5069.0,57.0,20.7,46.0,45.1,47.0,46.4,75.0,71.6,42.0,75.5,77.0,2010.0,22.1,4.4,36.7,17.5,46.3,12.2,7.1,11.5,46.8,8.4,13.8,8.1,54.6,12.2,4.2,5.7,220862|188030|151111|149222|203517|201441|147703|182281|199148|159939|240453|160658|172699|122409|105330|232982|133669|219356|228769|186399,8,96,44.1|07,USM,1376.0,-0.3934443898722
2460,217615,Aiken Technical College,Graniteville,South Carolina,2-year,Public,Associates--Public Rural-serving Medium,,,-81.842423,33.533633,www.atc.edu,2583,15.1,13.4,16.5,27073,34557,37780,21,37.0,2107,33,,,3263.0,24.0,1897.0,75.0,3.5,12.0,9.4,8.0,56.5,83.0,48.4,13.0,23.3,20.0,,,,,,,,,,,,,,,,,,196565|175652|139010|106625|138682|218140|175829|218858|207290|176239|199476|204255|206446|176354|218487|201283|138956|140942|222822|107327,20,289,46.7|10,,491.0,-0.7318247218907217
1960,199157,North Carolina Central University,Durham,North Carolina,4-year,Public,Masters Colleges and Universities--larger programs,X,,-78.898602,35.974237,www.nccu.edu,6220,14.9,21.1,21.5,80522,74454,66436,80,85.2,6321,50,859.0,4.0,8020.0,82.0,2872.0,37.0,15.0,29.0,39.7,33.0,63.5,95.0,73.2,47.0,72.1,70.0,2010.0,17.7,1.6,39.7,15.3,37.9,5.4,9.2,12.7,0.0,0.0,0.0,0.0,0.0,0.0,0.0,0.0,227526|162007|160621|110592|185129|110547|170842|147776|110486|159009|175342|234155|110510|110574|163338|198543|190637|227368|132602|221838,16,386,73.9|07,Central|NCCU,1236.0,0.009278058685755075
2562,220516,King College,Bristol,Tennessee,4-year,Private,Masters Colleges and Universities--medium programs,,,-82.156532,36.585899,www.king.edu,2191,30.5,20.9,22.5,31555,106812,101725,7,93.1,2106,69,1039.0,44.0,12985.0,44.0,13326.0,42.0,44.5,53.0,51.6,43.0,45.9,69.0,68.7,31.0,45.9,41.0,,,,,,,,,,,,,,,,,,168528|200156|134079|154721|154004|207722|140234|219383|178697|204194|155414|146339|151777|150941|180595|219082|149505|155973|209506|196291,38,169,60.2|07,,182.0,0.7827855856065469
650,140696,Oglethorpe University,Atlanta,Georgia,4-year,Private,Baccalaureate Colleges--Arts & Sciences,,,-84.334756,33.875939,www.oglethorpe.edu,1091,18.9,21.7,22.5,106870,108974,101725,73,90.9,1027,37,1131.0,73.0,21081.0,83.0,18477.0,51.0,54.7,70.0,62.0,64.0,39.8,56.0,79.4,62.0,55.5,54.0,,,,,,,,,,,,,,,,,,153144|100937|168591|174747|125727|143084|152390|199111|199865|165936|175980|157818|174792|169080|153834|179955|204909|206525|170301|181446,30,252,67.0|07,,179.0,2.0440780202391213
256,117104,Life Pacific College,San Dimas,California,4-year,Private,Theological seminaries- Bible colleges- and other faith-related institutions,,,-117.830997,34.089421,www.lifepacific.edu,577,20.4,22.4,22.5,67415,125902,101725,39,69.7,437,17,930.0,11.0,5940.0,13.0,6382.0,21.0,39.0,44.0,48.8,38.0,39.4,56.0,62.8,19.0,18.8,7.0,,,,,,,,,,,,,,,,,,194736|431983|260947|186186|441609|127714|196583|235769|153241|443340|194693|142090|155496|105899|178679|171881|164614|177083|122728|216311,74,106,29.4|07,,41.0,-0.3147694047573964
192,111434,Canada College,Redwood City,California,2-year,Public,Associates--Public Suburban-serving Multicampus,,,-122.265549,37.447365,canadacollege.edu,6620,10.2,12.8,16.5,38197,44144,37780,47,18.2,3446,52,,,2009.0,2.0,,,5.0,24.0,14.4,27.0,15.7,2.0,65.6,82.0,29.4,40.0,,,,,,,,,,,,,,,,,,122791|120953|399212|116439|118912|366401|230162|112385|125499|235699|113634|146472|123509|211307|121619|120971|240125|114716|147800|122205,113,99,14.1|10,,298.0,-0.9271879522550062
1501,179964,William Woods University,Fulton,Missouri,4-year,Private,Masters Colleges and Universities--larger programs,,,-91.949273,38.857864,www.williamwoods.edu,1002,28.5,24.5,22.5,23248,86885,101725,3,84.1,885,32,1047.0,47.0,19074.0,75.0,11097.0,36.0,44.6,53.0,56.5,52.0,34.1,43.0,74.4,47.0,20.1,8.0,,,,,,,,,,,,,,,,,,233541|213367|168005|194091|215655|238616|144892|161554|157447|148487|141264|155681|212601|206941|163578|143118|174783|233277|160612|171456,34,386,68.0|07,,177.0,1.7314033764264265
2636,224615,El Centro College,Dallas,Texas,2-year,Public,Associates--Public Urban-serving Multicampus,,,-96.805361,32.779817,www.elcentrocollege.edu/,10771,18.6,15.0,16.5,44535,40856,37780,62,18.5,6086,75,,,2898.0,14.0,,,0.8,1.0,3.8,0.0,39.2,44.0,56.6,45.0,34.8,57.0,,,,,,,,,,,,,,,,,,226930|126942|214379|105792|127820|420398|144193|117052|384333|224572|194222|144218|178022|117690|221643|160481|236753|120421|207935|117715,63,125,20.3|10,,501.0,-0.7886888200430054
3635,448664,Miller-Motte Technical College -Nashville,Madison,Tennessee,2-year,Private,Associates--Private For-profit,,,-86.703281,36.28769,miller-motte.edu,425,39.9,37.8,32.8,33416,20075,24795,74,67.8,441,45,,,4902.0,70.0,,,58.8,73.0,58.8,44.0,85.8,84.0,58.3,25.0,29.2,34.0,,,,,,,,,,,,,,,,,,433004|448655|131742|447421|444972|440332|450696|452124|431141|442046|450401|444343|382054|446923|419022|448512|119368|124706|167738|136738,15,517,69.7|10,,51.0,-0.47648155237950757
3442,440448,University of Phoenix Houston Campus,Houston,Texas,4-year,Private,Schools of business and management,,,-95.585115,29.783751,www.phoenix.edu,1595,19.8,23.9,24.6,60182,47221,38763,69,100.0,1409,81,,,3894.0,26.0,,,0.3,0.0,16.4,25.0,60.7,31.0,39.4,20.0,3.4,2.0,,,,,,,,,,,,,,,,,,414708|440439|442897|442152|406006|443474|442170|138293|421018|442143|434973|439297|169327|432223|440420|182430|414878|445717|227243|442161,22,42,46.0|07,,323.0,-0.6335199385096502
1601,184481,Essex County College,Newark,New Jersey,2-year,Public,Associates--Public Urban-serving Multicampus,,,-74.178234,40.738444,www.essex.edu,12175,12.7,15.8,16.5,52391,49808,37780,76,52.5,9595,87,,,4923.0,80.0,,,1.1,1.0,7.8,5.0,58.7,86.0,58.0,51.0,15.7,4.0,,,,,,,,,,,,,,,,,,135391|158662|218353|190673|190628|190619|198260|121363|144209|440305|193326|218894|144166|224642|246354|227924|202356|177995|179292|218113,19,125,67.6|10,,2646.0,-0.47320991933512957
1609,184995,Hudson County Community College,Jersey City,New Jersey,2-year,Public,Associates--Public Urban-serving Single Campus,,,-74.062861,40.730559,www.hccc.edu,9036,11.7,15.8,16.5,57002,49808,37780,82,67.1,6659,77,,,4514.0,68.0,,,2.6,7.0,8.9,7.0,62.8,91.0,51.8,24.0,12.7,2.0,,,,,,,,,,,,,,,,,,138901|138840|107664|129367|171304|201973|151032|218830|215239|175041|174136|409315|203748|201928|150987|165033|155292|205470|170055|167534,19,31,60.0|10,,2636.0,-0.5369288676756339
2127,204820,Ohio University at Chillicothe,Chillicothe,Ohio,4-year,Public,Associates--Public 4-year Primarily Associates,,,-83.00499,39.328076,www.chillicothe.ohiou.edu,2330,10.5,19.5,21.5,67411,74213,66436,65,48.7,1801,14,,,5213.0,31.0,,,4.0,2.0,16.0,2.0,54.4,88.0,50.5,3.0,19.4,1.0,,,,,,,,,,,,,,,,,,211477|182865|140322|108092|214740|127024|142522|139463|174279|214166|165802|214759|194392|151458|372958|207661|161217|204839|203474|159382,34,34,81.1|07,,150.0,-0.4280302249127671
7,100830,Auburn University at Montgomery,Montgomery,Alabama,4-year,Public,Masters Colleges and Universities--larger programs,,,-86.177351,32.369939,www.aum.edu,4322,15.4,18.8,21.5,58541,75743,66436,51,69.4,3571,30,970.0,26.0,4327.0,10.0,10736.0,79.0,9.9,15.0,27.1,12.0,40.1,56.0,63.2,17.0,60.1,44.0,,,,,,,,,,,,,,,,,,229814|210429|160038|176965|169798|207263|102368|207041|212115|141644|235097|162584|211361|213349|141334|139199|168290|187444|183080|183026,13,386,43.8|07,AUM,536.0,-0.566061980975571
366,123642,South Coast College,Orange,California,2-year,Private,Associates--Private For-profit,,,-117.874109,33.787946,southcoastcollege.com,374,11.5,39.3,32.8,62079,23430,24795,93,65.0,333,33,,,4359.0,53.0,,,37.5,48.0,54.2,35.0,62.5,34.0,72.3,64.0,16.7,12.0,,,,,,,,,,,,,,,,,,216445|430485|158343|368629|118277|160940|210906|231411|142054|392257|364168|217086|372329|213473|366580|439491|224183|443623|175014|200013,63,517,,,24.0,-0.561076635384138
1539,181376,Nebraska Christian College,Papillion,Nebraska,4-year,Private,Theological seminaries- Bible colleges- and other faith-related institutions,,,-96.09437,41.12314,nechristian.edu,150,20.3,27.2,22.5,117266,61953,101725,77,84.0,111,2,,,11539.0,36.0,6055.0,21.0,6.7,3.0,20.0,5.0,68.6,91.0,57.1,11.0,33.3,22.0,,,,,,,,,,,,,,,,,,405058|157030|102261|444398|176938|174206|137962|194569|208725|179256|134510|198747|199458|176336|194718|202903|132408|174525|217040|132879,15,106,100.0|07,,45.0,0.5575102816936638
557,136145,North Florida Community College,Madison,Florida,2-year,Public,Associates--Public Rural-serving Small,,,-83.421873,30.473871,www.nfcc.edu,1179,24.5,21.5,16.5,27992,23547,37780,23,40.9,903,9,,,4566.0,70.0,1895.0,74.0,27.4,92.0,43.3,95.0,56.3,82.0,66.7,84.0,46.2,79.0,,,,,,,,,,,,,,,,,,198084|107974|159692|219480|219189|106883|101602|203331|158583|210270|169992|101949|101499|199625|142179|198905|155052|158088|180373|160366,5,111,59.1|10,,208.0,-0.5288276810895551
3760,457101,Carrington CollegeLas Vegas,Las Vegas,Nevada,2-year,Private,Not applicable- not in Carnegie universe,,,-115.117941,36.08533,www.carrington.edu,255,37.6,27.7,32.8,78946,23966,24795,96,87.8,237,19,,,3814.0,25.0,,,0.0,0.0,50.0,28.0,66.1,43.0,66.7,46.0,52.9,66.0,,,,,,,,,,,,,,,,,,,6,81,,,22.0,-0.645983302488233
3324,430166,Golf Academy of America (Ariz.),Chandler,Arizona,2-year,Private,Associates--Private For-profit,,,-111.839481,33.33601,www.golfacademy.edu,171,47.3,36.8,32.8,28015,21312,24795,62,93.0,174,11,,,4618.0,61.0,,,97.4,99.0,97.4,99.0,43.3,12.0,79.7,82.0,33.3,39.0,,,,,,,,,,,,,,,,,,434690|410496|418889|442879|443720|442231|114354|248846|122366|114415|375841|111009|114390|423980|174482|367194|114123|178305|364973|237598,12,517,44.9|10,,114.0,-0.5207264945034763
3287,420307,Virginia College at Birmingham,Birmingham,Alabama,4-year,Private,Masters Colleges and Universities--smaller programs,,,-86.817687,33.46999,www.vc.edu,3741,16.1,29.1,24.6,43907,17406,38763,50,63.6,8062,97,,,3771.0,18.0,,,24.0,58.0,28.0,56.0,79.7,85.0,26.7,4.0,27.1,70.0,,,,,,,,,,,,,,,,,,219578|214166|139463|207661|204486|174279|108092|194392|182865|122843|211477|142522|159382|204820|140322|366252|203526|230171|214740|146393,9,106,31.7|07,,50.0,-0.6526823606267211
746,146348,Kankakee Community College,Kankakee,Illinois,2-year,Public,Associates--Public Rural-serving Large,,,-87.851737,41.098226,www.kcc.edu,3825,16.0,14.6,16.5,31201,33727,37780,31,41.8,2969,46,,,5216.0,84.0,1724.0,72.0,8.0,42.0,19.7,48.0,47.3,64.0,69.3,89.0,26.0,29.0,,,,,,,,,,,,,,,,,,229504|154572|209074|173461|384342|148937|170550|134343|101514|143279|153445|146685|166823|142559|238759|147916|104425|144564|174738|230861,48,128,30.0|10,,264.0,-0.42756284876357026
1105,161581,Washington County Community College,Calais,Maine,2-year,Public,Associates--Public Rural-serving Small,,,-67.243306,45.165537,www.wccc.me.edu,463,39.4,22.1,16.5,50038,38062,37780,73,62.9,340,2,,,6983.0,97.0,1418.0,67.0,24.3,89.0,35.1,90.0,69.7,95.0,47.7,12.0,64.7,95.0,,,,,,,,,,,,,,,,,,240736|160384|218955|368911|141006|101994|161484|140997|107549|127778|414911|217837|430795|159984|242565|198640|180081|445018|139621|243638,7,111,50.7|10,,148.0,-0.1522782968866238
48,102234,Spring Hill College,Mobile,Alabama,4-year,Private,Masters Colleges and Universities--smaller programs,,,-88.138199,30.694751,www.shc.edu,1292,18.5,17.8,22.5,108024,92268,101725,73,93.3,1225,44,1100.0,65.0,18715.0,74.0,15871.0,47.0,47.1,58.0,56.3,52.0,33.3,40.0,75.6,51.0,56.2,55.0,,,,,,,,,,,,,,,,,,238458|217688|217536|165671|235167|196185|144962|177065|219976|186876|183910|121309|377555|102669|203775|238078|213987|150534|173045|232609,16,106,86.5|07,,380.0,1.6754740305725364
3788,460464,Norco College,Norco,California,2-year,Public,Not applicable- not in Carnegie universe,,,-117.568201,33.91675,www.rcc.edu/norco/index.cfm,9648,12.9,12.8,16.5,44134,44144,37780,61,23.5,4916,66,,,1775.0,1.0,265.0,26.0,8.5,46.0,24.5,65.0,19.6,5.0,71.0,92.0,26.8,31.0,,,,,,,,,,,,,,,,,,,113,81,5.9|10,,588.0,-0.9636432918923608
166,110468,Alliant International University-San Diego,San Diego,California,4-year,Private,Doctoral/Research Universities,,,-117.094398,32.897056,www.alliant.edu,917,33.5,22.4,22.5,60123,125902,101725,31,19.5,227,8,,,6587.0,15.0,414.0,1.0,,,,,32.3,39.0,75.0,49.0,79.4,82.0,,,,,,,,,,,,,,,,,,137148|110316|436438|125231|241331|115083|413413|444130|231651|114549|245865|115746|365426|149514|117140|209612|168740|157757|173984|206279,74,79,,,,-0.21397194858060842
1047,158884,Nunez Community College,Chalmette,Louisiana,2-year,Public,Associates--Public Suburban-serving Single Campus,,,-89.95888,29.95419,www.nunez.edu,2506,21.6,21.9,16.5,18426,15389,37780,7,36.6,1390,18,,,4417.0,65.0,960.0,56.0,2.4,6.0,11.4,14.0,63.8,92.0,43.5,6.0,49.4,84.0,,,,,,,,,,,,,,,,,,211343|216825|193946|148007|218991|140012|191199|395362|151041|175315|213659|186469|191339|166133|198774|109350|211927|211079|129756|125091,16,106,11.2|10,,166.0,-0.5520406964996655
3387,437103,Baton Rouge Community College,Baton Rouge,Louisiana,2-year,Public,Associates--Public Urban-serving Single Campus,,,-91.137935,30.448276,www.mybrcc.edu,8043,9.1,21.9,16.5,91796,15389,37780,97,52.4,5744,73,,,3966.0,51.0,52.0,6.0,1.3,2.0,4.7,1.0,51.3,74.0,44.2,6.0,45.0,77.0,,,,,,,,,,,,,,,,,,234933|207449|198552|172617|198455|167534|167905|195322|191719|155292|165033|170055|201928|205470|203748|202222|150987|235149|174136|175041,16,31,47.5|10,,1341.0,-0.6223029109289258
2345,213783,Mansfield University of Pennsylvania,Mansfield,Pennsylvania,4-year,Public,Masters Colleges and Universities--medium programs,,,-77.07299,41.79971,www.mansfield.edu,2717,20.9,21.3,21.5,72118,81610,66436,72,90.3,2679,23,964.0,24.0,6033.0,49.0,279.0,4.0,34.9,76.0,50.7,60.0,43.9,69.0,71.9,44.0,62.6,49.0,2010.0,25.5,7.2,24.6,16.5,45.1,15.5,2.7,8.0,52.4,9.6,6.4,8.6,57.2,12.3,0.5,7.0,230913|193399|218061|213613|230834|238193|197045|167598|238980|232672|125897|154493|153366|172264|161518|207865|226383|203085|176035|236452,41,169,68.4|07,,568.0,-0.30028074413229394
3555,445346,Kaplan College at Lubbock,Lubbock,Texas,2-year,Private,Associates--Private For-profit,,,-101.850884,33.586941,www.kaplancollege.com/lubbock-tx/,267,19.9,35.1,32.8,15765,18614,24795,29,100.0,466,49,,,3761.0,22.0,,,0.0,0.0,64.6,60.0,68.9,48.0,68.1,50.0,5.9,1.0,,,,,,,,,,,,,,,,,,446905|413680|450155|450234|450216|448600|448503|452948|434159|377421|111638|448488|449117|447236|447634|450207|450252|421878|454591|448442,37,517,,,379.0,-0.654240281124044
528,133979,Florida Memorial University,Miami Gardens,Florida,4-year,Private,Masters Colleges and Universities--smaller programs,X,,-80.270672,25.917854,www.fmuniv.edu,1517,12.5,24.2,22.5,110987,71929,101725,75,93.2,1543,54,,,5471.0,11.0,5871.0,20.0,22.9,17.0,37.3,17.0,89.8,99.0,68.8,32.0,73.7,77.0,,,,,,,,,,,,,,,,,,106306|101675|107600|102270|220604|206491|227429|177551|233499|106412|133526|198862|199582|199643|228884|229887|217721|218919|207209|218399,47,106,64.1|07,,510.0,-0.3878358760818378
1080,160959,College of the Atlantic,Bar Harbor,Maine,4-year,Private,Baccalaureate Colleges--Arts & Sciences,,,-68.228849,44.399584,www.coa.edu,362,24.1,22.0,22.5,127193,107831,101725,82,95.0,314,12,,,28450.0,94.0,116238.0,89.0,56.0,71.0,69.0,76.0,30.1,33.0,80.6,66.0,100.0,95.0,,,,,,,,,,,,,,,,,,142294|146481|230940|199698|420352|204802|127556|230047|214698|138600|161341|214801|239512|183275|190248|191676|210571|154749|220589|155511,11,252,80.8|07,,84.0,3.1921096347163247
1017,157359,Mid-Continent University,Mayfield,Kentucky,4-year,Private,Baccalaureate Colleges--Diverse Fields,,,-88.648361,36.815418,www.midcontinent.edu,2154,37.0,20.4,22.5,26005,64209,101725,4,84.6,1628,57,923.0,9.0,15363.0,58.0,,,5.4,2.0,15.4,3.0,56.3,83.0,62.1,18.0,20.7,8.0,,,,,,,,,,,,,,,,,,189228|183789|440457|434991|442161|439279|182430|445717|434982|227243|442143|439297|444158|138293|442170|421018|414878|442897|153409|443890,21,343,27.5|07,,130.0,1.1532590798699192
1261,169479,"Davenport University (Grand Rapids, Mich.)",Grand Rapids,Michigan,4-year,Private,Masters Colleges and Universities--medium programs,,,-85.529655,42.849713,www.davenport.edu,7356,27.8,24.2,22.5,35227,54025,101725,8,35.1,5810,94,,,13421.0,48.0,2572.0,8.0,8.1,4.0,42.1,25.0,52.8,80.0,78.9,61.0,26.2,14.0,,,,,,,,,,,,,,,,,,438610|439163|421009|237154|161165|221953|240754|188304|432232|225399|104531|175421|206862|227377|434946|177162|434955|226833|181783|206914,39,169,26.6|07,,271.0,0.8507109192898229
3438,440341,Art Institute of Washington,Arlington,Virginia,4-year,Private,Schools of art- music- and design,,,-77.072631,38.895859,www.aiw.aii.edu,1499,18.8,28.6,24.6,89484,34964,38763,87,74.4,1483,82,,,5131.0,75.0,,,14.8,36.0,24.1,45.0,55.2,20.0,51.1,45.0,55.2,92.0,,,,,,,,,,,,,,,,,,173887|224776|441973|148177|377546|117113|208239|113582|121275|428444|166911|183345|167321|132338|210960|182111|210942|112570|222938|117928,20,114,47.0|07,,291.0,-0.44080517299081445
2627,224244,Dallas Christian College,Dallas,Texas,4-year,Private,Theological seminaries- Bible colleges- and other faith-related institutions,,,-96.887124,32.913698,www.dallas.edu,316,19.0,23.3,22.5,125763,84271,101725,81,72.5,256,10,930.0,11.0,2719.0,1.0,656.0,3.0,18.6,12.0,30.2,10.0,46.9,71.0,58.3,13.0,23.7,11.0,,,,,,,,,,,,,,,,,,145497|237136|179256|137953|202903|208725|198747|132408|194569|174206|132879|207157|444398|102261|436614|217040|194718|217606|153302|181376,44,106,95.6|07,,43.0,-0.8165755969450843
1812,195128,Russell Sage College,Troy,New York,4-year,Private,Masters Colleges and Universities--larger programs,,,-73.693711,42.72821,www.sage.edu,1699,26.7,22.8,22.5,46707,108407,101725,16,85.1,1519,53,,,19185.0,76.0,9469.0,32.0,52.5,66.0,58.0,56.0,46.4,70.0,78.4,59.0,94.1,93.0,,,,,,,,,,,,,,,,,,106342|133492|216667|239628|179946|195474|164216|218539|234085|158477|174251|139144|152673|150668|173300|168546|184348|231059|220710|181446,116,386,46.6|07,,162.0,1.74869629394671
2685,227216,University of North Texas,Denton,Texas,4-year,Public,Research Universities--high research activity,,,-97.151211,33.210958,www.unt.edu,31243,24.4,21.7,21.5,47406,54356,66436,25,77.2,26524,96,1100.0,75.0,6835.0,66.0,3907.0,48.0,24.7,58.0,49.9,57.0,36.4,44.0,75.0,54.0,77.8,80.0,,,,,,,,,,,,,,,,,,225511|156125|176080|204857|234030|178420|229115|139940|228769|200332|133669|133951|105330|232982|157289|216339|219356|186399|238032|161253,35,96,46.4|07,UNT,3495.0,-0.17533552024700189
2761,230603,Southern Utah University,Cedar City,Utah,4-year,Public,Masters Colleges and Universities--larger programs,,,-113.070146,37.674617,www.suu.edu/,7017,21.1,22.0,21.5,48765,52543,66436,28,74.9,6009,48,1066.0,64.0,7961.0,82.0,3223.0,40.0,21.9,50.0,41.0,35.0,38.4,49.0,64.7,20.0,74.8,75.0,2010.0,15.8,8.8,25.1,20.5,29.4,15.2,8.8,16.3,50.0,8.4,7.9,12.5,54.1,12.8,4.3,7.3,219198|173124|174358|200253|206437|155900|175078|183062|203085|207865|232609|213321|226383|236452|232672|176035|173045|213987|230834|238980,7,386,68.8|07,SUU,843.0,8.632775155029829e-05
1436,176965,University of Central Missouri,Warrensburg,Missouri,4-year,Public,Masters Colleges and Universities--larger programs,,,-93.737445,38.755882,www.ucmo.edu,9974,21.5,21.0,21.5,47923,56359,66436,27,83.1,8560,60,990.0,33.0,5339.0,35.0,3423.0,43.0,30.0,69.0,53.6,66.0,38.1,48.0,68.8,33.0,84.0,90.0,,,,,,,,,,,,,,,,,,229814|210429|100830|169798|160038|102368|207041|212115|207263|211361|141644|162584|213349|235097|183080|183026|168290|187444|232706|139199,13,386,59.5|07,,1426.0,-0.4084004266464993
1987,199731,Southwestern Community College (N.C.),Sylva,North Carolina,2-year,Public,Associates--Public Rural-serving Medium,,,-83.207129,35.348575,www.southwesterncc.edu,2242,19.7,14.8,16.5,34587,37924,37780,39,41.8,1926,30,,,4818.0,76.0,612.0,44.0,30.5,94.0,32.5,86.0,52.8,77.0,56.9,47.0,32.5,49.0,,,,,,,,,,,,,,,,,,235334|154952|225371|221096|161545|200305|154907|198367|199768|155186|229540|231882|239460|198330|198233|240170|219888|157483|208275|197814,59,289,20.8|10,,151.0,-0.48956808455701945
2696,227687,Ranger College,Ranger,Texas,2-year,Public,Associates--Public Rural-serving Small,,,-98.68041,32.466916,www.rangercollege.edu,1893,13.1,15.0,16.5,29642,40856,37780,27,51.9,1429,20,,,4377.0,64.0,,,13.7,68.0,22.5,58.0,36.8,37.0,44.0,6.0,29.5,40.0,,,,,,,,,,,,,,,,,,155201|420440|160843|231873|107521|158307|240657|194028|223922|180151|160001|161077|200341|420556|420723|160694|155487|155593|233037|174604,63,111,29.2|10,,364.0,-0.5582723784889568
3575,446385,Los Angeles Music Academy,Pasadena,California,2-year,Private,Associates--Private For-profit,,,-118.150113,34.139293,www.lama.edu,148,33.0,39.3,32.8,34175,23430,24795,74,95.9,172,10,,,7255.0,95.0,,,65.8,84.0,73.7,80.0,21.0,1.0,71.0,59.0,0.0,0.0,,,,,,,,,,,,,,,,,,450137|428000|183150|449348|161208|446233|454184|448248|444626|441982|454865|454616|448239|447458|135735|454856|202064|244279|133155|440624,63,517,52.1|10,,38.0,-0.10990285935944245
2862,234207,Washington and Lee University,Lexington,Virginia,4-year,Private,Baccalaureate Colleges--Arts & Sciences,,,-79.445724,37.787832,www.wlu.edu/,1855,25.4,19.4,22.5,188689,59113,101725,93,99.8,1781,61,1392.0,96.0,34128.0,98.0,599001.0,98.0,85.9,96.0,90.2,95.0,9.6,1.0,96.7,97.0,75.1,79.0,,,,,,,,,,,,,,,,,,112260|130697|191515|212911|197133|173258|230959|161004|209922|168218|204501|173902|168342|164465|161086|190099|216287|198385|123165|189097,28,252,98.7|07,W&L,461.0,4.076696893096235
67,104090,International Institute of the Americas at Glendale,Phoenix,Arizona,4-year,Private,Baccalaureate/Associates Colleges,,,-112.15007,33.525384,www.brooklinecollege.edu,828,18.4,32.8,24.6,71648,25661,38763,77,100.0,736,61,,,4191.0,41.0,,,37.5,82.0,42.9,81.0,66.1,42.0,44.7,32.0,14.8,40.0,,,,,,,,,,,,,,,,,,438179|404806|242981|241836|230621|189413|241304|104364|188465|367909|137801|241720|420006|121381|230630|134149|438902|445355|144883|206817,23,124,,,56.0,-0.5872496997391617
2090,203720,Ohio Business College at Sheffield Village,Sheffield Village,Ohio,2-year,Private,Associates--Private For-profit,,,-82.133835,41.418467,www.ohiobusinesscollege.edu/,415,36.8,34.1,32.8,17434,35515,24795,34,77.1,498,51,,,5153.0,76.0,,,32.3,40.0,64.5,60.0,89.5,91.0,56.8,22.0,19.4,16.0,,,,,,,,,,,,,,,,,,206224|420103|189574|377652|147749|363439|215433|434821|433563|204060|189592|439570|103945|442426|260354|188517|369905|367112|237437|377670,42,517,35.4|10,,62.0,-0.4373777478967042
468,130314,Saint Joseph College,West Hartford,Connecticut,4-year,Private,Masters Colleges and Universities--larger programs,,,-72.730489,41.783028,www.usj.edu,1049,23.9,21.8,22.5,41403,188870,101725,12,75.7,905,33,950.0,15.0,15446.0,59.0,11878.0,38.0,37.0,41.0,52.1,44.0,36.9,49.0,77.1,56.0,35.0,25.0,,,,,,,,,,,,,,,,,,206048|211352|229160|151306|151102|110495|207847|222831|193292|139764|210775|138983|366711|377564|199281|137032|212832|206349|180179|175616,15,386,61.6|07,,165.0,1.1661898199976988
680,141981,University of Hawaii-West Oahu,Kapolei,Hawaii,4-year,Public,Baccalaureate Colleges--Diverse Fields,,,-158.062444,21.353359,westoahu.hawaii.edu,2361,28.8,22.7,21.5,74771,96333,66436,74,44.2,1303,7,891.0,7.0,4491.0,13.0,125.0,3.0,6.2,5.0,25.0,9.0,35.1,39.0,67.7,29.0,47.8,23.0,,,,,,,,,,,,,,,,,,,4,343,6.0|07,,16.0,-0.5405120848194764
1644,187903,New Mexico Junior College,Hobbs,New Mexico,2-year,Public,Associates--Public Rural-serving Medium,,,-103.182466,32.757596,www.nmjc.edu,2320,15.5,20.5,16.5,52506,24502,37780,76,40.5,1753,26,,,2801.0,12.0,3559.0,89.0,18.4,81.0,18.4,43.0,19.2,5.0,68.9,89.0,40.9,70.0,,,,,,,,,,,,,,,,,,117274|234696|239910|230597|155566|114433|155858|363633|239008|196699|404426|224110|165194|231536|139700|232867|222567|227401|148991|181312,19,289,37.3|10,,244.0,-0.803800648867037
1616,185828,New Jersey Institute of Technology,Newark,New Jersey,4-year,Public,Research Universities--high research activity,,,-74.177113,40.741997,www.njit.edu/,7317,14.9,21.5,21.5,82636,76212,66436,81,78.0,8038,58,1142.0,83.0,11615.0,96.0,7963.0,71.0,23.4,54.0,57.7,74.0,39.0,52.0,86.0,85.0,65.2,55.0,2010.0,18.7,4.0,50.1,16.0,46.9,10.8,10.8,9.7,58.0,3.9,16.3,7.2,67.4,6.2,2.3,4.9,178402|207388|232186|216339|131283|157289|100706|230728|133951|133881|100751|196413|229115|176080|156125|234030|202480|183044|196103|171128,12,96,47.2|07,,730.0,0.5693504774733174
578,137476,St. Thomas University,Miami Gardens,Florida,4-year,Private,Masters Colleges and Universities--larger programs,,,-80.256265,25.920915,www.stu.edu,1035,15.9,24.2,22.5,62461,71929,101725,33,93.0,1588,55,904.0,7.0,14401.0,54.0,6553.0,22.0,27.9,24.0,38.3,19.0,51.1,78.0,61.8,17.0,67.5,71.0,,,,,,,,,,,,,,,,,,140818|145336|127653|199306|104717|193016|196592|225502|195137|148584|187897|262086|234915|192439|245883|169716|227331|190716|147536|194958,47,386,64.2|07,,222.0,1.0033871280274616
1564,182500,Truckee Meadows Community College,Reno,Nevada,2-year,Public,Associates--Public Rural-serving Large,,,-119.795319,39.572159,www.tmcc.edu,11204,16.3,16.3,16.5,34928,34928,37780,40,25.9,6919,78,,,3122.0,20.0,1322.0,65.0,2.8,9.0,21.0,53.0,32.4,26.0,66.2,83.0,30.4,43.0,,,,,,,,,,,,,,,,,,106148|236638|115393|238722|110334|236188|238263|188100|112561|236258|197887|108807|118684|190840|234845|127732|113193|194240|229841|226806,1,128,22.5|10,,677.0,-0.7537914009029737
2353,214111,Montgomery County Community College,Blue Bell,Pennsylvania,2-year,Public,Associates--Public Suburban-serving Multicampus,,,-75.276093,40.175609,www.mc3.edu,13122,15.0,15.6,16.5,63251,54524,37780,88,34.8,8723,85,,,3335.0,25.0,195.0,20.0,5.8,30.0,16.1,34.0,26.0,13.0,61.7,69.0,20.9,13.0,,,,,,,,,,,,,,,,,,183877|234951|111920|113236|117894|232450|167525|127909|162122|112826|235343|118347|118930|439145|235237|155210|166647|235103|113218|144944,16,99,42.3|10,,2051.0,-0.7206076943099972
3732,455488,Fortis College,Montgomery,Alabama,2-year,Private,Associates--Private For-profit,,,-86.251882,32.383686,www.fortiscollege.edu,363,39.8,3.2,32.8,11998,24274,24795,18,79.9,728,69,,,3931.0,31.0,,,5.9,4.0,40.2,18.0,67.6,45.0,57.1,23.0,28.0,32.0,,,,,,,,,,,,,,,,,,,5,517,,,528.0,-0.6277556326695557
2669,226152,Texas A&M International University,Laredo,Texas,4-year,Public,Masters Colleges and Universities--larger programs,,,-99.435225,27.573504,tamiu.edu,6585,16.6,21.7,21.5,67946,54356,66436,66,61.1,4740,39,892.0,8.0,6578.0,61.0,6117.0,63.0,21.2,48.0,43.0,42.0,57.3,90.0,73.7,49.0,68.1,60.0,,,,,,,,,,,,,,,,,,190761|157863|152248|175616|208646|183974|199281|131450|110495|138716|151306|211352|207847|138983|139764|222831|151102|206048|130314|366711,35,386,58.2|07,,605.0,-0.21537407702819897
3443,440457,University of Phoenix - Milwaukee Campus,Milwaukee,Wisconsin,4-year,Private,Schools of business and management,,,-88.048441,43.15025,www.phoenix.edu,256,12.9,25.1,24.6,212903,34675,38763,98,100.0,259,12,,,4178.0,40.0,,,0.0,0.0,14.6,18.0,69.7,52.0,38.6,19.0,6.7,9.0,,,,,,,,,,,,,,,,,,439279|434991|442161|434982|445717|157359|189228|182430|439297|442143|421018|138293|444158|183789|442170|443890|414878|442897|443544|227243,15,42,36.7|07,,48.0,-0.5892749963856815
358,123341,Sierra College,Rocklin,California,2-year,Public,Associates--Public Suburban-serving Multicampus,,,-121.212646,38.792758,www.sierracollege.edu,18374,17.0,12.8,16.5,31409,44144,37780,31,37.8,11488,91,,,3020.0,18.0,231.0,23.0,6.8,34.0,28.9,78.0,31.5,24.0,72.2,94.0,26.3,30.0,,,,,,,,,,,,,,,,,,123800|147378|119164|111939|121886|161767|229799|146296|113980|184180|162779|172200|112172|262031|130040|162706|184791|149532|183859|185873,113,99,34.8|10,,1829.0,-0.7696821899756667
3494,442781,Tohono O'odham Community College,Sells,Arizona,2-year,Public,Tribal Colleges,,,-111.716249,31.991237,www.tocc.edu,243,13.5,20.4,16.5,445005,25969,37780,100,30.0,130,0,,,6113.0,92.0,2020.0,77.0,0.0,0.0,25.0,67.0,38.9,43.0,42.3,5.0,39.0,67.0,,,,,,,,,,,,,,,,,,188216|380359|200086|434751|200527|187596|380377|105297|366340|413617|180212|180160|187745|155140|219408|380368|200466|200208|180647|260372,20,33,9.3|10,,4.0,-0.2878173801537112
1517,180461,Montana State University at Bozeman,Bozeman,Montana,4-year,Public,Research Universities--very high research activity,,,-111.049918,45.666829,www.montana.edu/,13174,16.7,18.4,21.5,68493,61439,66436,67,83.6,11903,73,1115.0,79.0,4601.0,15.0,8171.0,73.0,20.0,43.0,49.4,56.0,31.6,28.0,75.8,57.0,63.3,51.0,2011.0,20.9,2.7,38.4,15.7,46.6,10.3,9.8,8.9,42.3,8.1,14.7,10.3,49.3,12.3,4.8,5.8,100663|196060|236939|209542|126818|201885|104151|230764|145600|104179|153603|110714|171100|157085|155317|137351|141574|243780|110671|110653,6,106,63.7|07,MSU Bozeman,1852.0,-0.5233749593489252
921,154262,St. Luke's College,Sioux City,Iowa,4-year,Private,Associates--Private Not-for-profit,,,-96.404922,42.517806,www.stlukescollege.edu,184,51.3,25.0,22.5,36539,65365,101725,9,75.5,167,5,1030.0,39.0,3016.0,2.0,8750.0,29.0,,,,,36.9,49.0,,,47.5,44.0,,,,,,,,,,,,,,,,,,191764|417734|195687|213233|192475|215381|213376|149019|192785|161022|190451|179919|212869|439899|175227|129154|204592|192961|190956|188687,31,73,1.3|07,,,-0.7703053581745959
2815,232450,John Tyler Community College,Chester,Virginia,2-year,Public,Associates--Public Suburban-serving Multicampus,,,-77.407937,37.346261,www.jtcc.edu,10103,15.7,19.3,16.5,28981,30465,37780,25,26.7,5864,73,,,2976.0,16.0,405.0,36.0,4.7,20.0,14.2,26.0,29.5,20.0,58.3,52.0,24.7,25.0,,,,,,,,,,,,,,,,,,183877|214111|439145|234951|166647|167525|127909|111920|113236|162122|117894|112826|235343|144944|118347|119216|235431|172963|113573|118930,24,99,39.4|10,,860.0,-0.7765370401638872
3037,246266,Kaplan College,El Paso,Texas,2-year,Private,Not applicable- not in Carnegie universe,,,-106.327868,31.737748,www.kaplancollege.com/el-paso-tx/,681,26.0,35.1,32.8,10279,18614,24795,14,100.0,1178,85,,,3181.0,7.0,,,0.0,0.0,76.4,83.0,29.9,3.0,81.1,84.0,24.4,25.0,,,,,,,,,,,,,,,,,,,37,81,,,774.0,-0.7445996699687689
109,106458,Arkansas State University,Jonesboro,Arkansas,4-year,Public,Masters Colleges and Universities--larger programs,,,-90.680478,35.842779,www2.astate.edu,10098,23.6,19.6,21.5,27456,47347,66436,7,75.7,9242,64,1088.0,72.0,7744.0,80.0,3440.0,43.0,18.7,40.0,35.7,25.0,46.2,74.0,73.1,47.0,73.9,74.0,2011.0,18.5,4.1,29.8,11.7,36.2,6.8,7.4,8.8,45.0,9.9,14.7,7.1,53.0,11.7,4.5,4.7,217934|157951|225627|156620|101879|149772|138789|159717|102094|196130|141334|155061|240417|187444|185590|227881|110565|216010|193645|234827,10,386,65.1|07,ASU,1655.0,-0.03372054704035541
1281,170587,Kirtland Community College,Roscommon,Michigan,2-year,Public,Associates--Public Rural-serving Medium,,,-84.413388,44.490753,www.kirtland.edu,1805,32.9,18.2,16.5,42345,40211,37780,57,38.4,1133,13,,,3538.0,32.0,1765.0,73.0,2.0,3.0,15.8,32.0,58.3,86.0,53.4,31.0,26.2,29.0,,,,,,,,,,,,,,,,,,240745|141158|238014|176169|151014|218520|173735|100760|207740|217712|207236|227225|198491|156860|175935|178448|175883|229319|107637|199722,30,289,40.2|10,,152.0,-0.6889819082143435
1011,157100,Kentucky Christian University,Grayson,Kentucky,4-year,Private,Baccalaureate Colleges--Diverse Fields,,,-82.946883,38.339002,www.kcu.edu,559,16.1,20.4,22.5,84597,64209,101725,55,88.4,566,22,976.0,22.0,10116.0,29.0,9542.0,32.0,18.4,11.0,38.7,20.0,49.5,75.0,53.3,9.0,59.7,59.0,,,,,,,,,,,,,,,,,,213400|178208|146667|153320|226587|139764|222831|207263|207847|160074|198066|160038|207041|197911|200572|240055|100830|210429|139311|216357,21,343,81.9|07,,163.0,0.3358181949246231
1427,176479,William Carey University,Hattiesburg,Mississippi,4-year,Private,Masters Colleges and Universities--larger programs,,,-89.291815,31.305264,www.wmcarey.edu,2257,23.8,21.1,22.5,29210,49905,101725,6,83.6,2395,74,1105.0,66.0,4035.0,5.0,2958.0,10.0,46.0,56.0,62.0,64.0,66.0,90.0,77.5,57.0,54.3,52.0,,,,,,,,,,,,,,,,,,227331|228501|131876|192439|187897|139533|190114|193016|144005|196592|190716|194958|217776|144759|177418|104717|145336|113607|405979|199306,7,386,33.1|07,,163.0,-0.6115532594973981
733,145646,Illinois Wesleyan University,Bloomington,Illinois,4-year,Private,Baccalaureate Colleges--Arts & Sciences,,,-88.990622,40.491522,www.iwu.edu,2009,22.4,24.2,22.5,120659,99440,101725,79,99.6,2010,67,1241.0,88.0,18143.0,72.0,116710.0,89.0,72.1,88.0,78.1,86.0,18.8,12.0,87.6,83.0,71.4,75.0,,,,,,,,,,,,,,,,,,156408|170532|221351|221519|166018|195526|233374|216524|163912|228343|213385|218070|238333|174844|212009|146427|222983|130590|236328|202523,50,252,94.7|07,,538.0,1.5863609781256696
1068,160524,Remington College-Lafayette Campus,Lafayette,Louisiana,2-year,Private,Associates--Private For-profit,,,-92.023791,30.168681,www.remingtoncollege.edu/louisiana-career-school-overview,326,17.4,16.7,25.9,17910,18558,34510,16,100.0,566,75,,,3782.0,33.0,,,45.9,46.0,57.6,54.0,71.4,69.0,57.5,42.0,61.5,65.0,,,,,,,,,,,,,,,,,,176549|421832|410520|198242|413635|225849|225201|434432|427663|161776|197081|216454|237604|430360|442347|430388|436225|124937|380094|213589,2,517,,,399.0,-0.650968648079666
188,110945,California College San Diego,San Diego,California,4-year,Private,Other health professions schools,,,-117.167121,32.83529,www.cc-sd.edu,762,22.2,22.4,22.5,32547,125902,101725,7,100.0,1577,55,,,16917.0,67.0,,,44.6,53.0,44.6,30.0,71.6,92.0,27.4,1.0,20.3,8.0,,,,,,,,,,,,,,,,,,378406|414586|189556|105163|368452|443687|442718|178226|413866|413884|139074|445276|179201|445072|381741|440925|409838|434548|430263|437051,74,43,,,316.0,1.395359925153889
1553,181817,Western Nebraska Community College,Scottsbluff,Nebraska,2-year,Public,Associates--Public Rural-serving Large,,,-103.64249,41.875705,www.wncc.edu,1960,17.0,16.9,16.5,69938,40345,37780,91,47.1,1664,24,,,5186.0,84.0,1697.0,71.0,23.1,88.0,23.1,60.0,35.5,34.0,48.5,14.0,34.6,56.0,,,,,,,,,,,,,,,,,,226116|155104|123484|173638|199087|235750|174756|157304|190442|233639|198668|153922|219426|208275|155450|199324|233903|206011|199740|198987,8,128,57.1|10,,402.0,-0.4322366102555388
2969,239220,Mid-State Technical College,Wisconsin Rapids,Wisconsin,2-year,Public,Associates--Public Rural-serving Medium,,,-89.783449,44.391219,www.mstc.edu,2905,24.0,22.8,16.5,35172,42745,37780,40,35.1,2128,34,,,3899.0,48.0,847.0,53.0,15.5,73.0,25.4,69.0,48.6,67.0,55.9,42.0,44.0,75.0,,,,,,,,,,,,,,,,,,153533|203881|145521|161192|227386|198118|251260|153472|240116|199740|135160|206011|137315|233903|199324|233648|240198|173203|174473|175236,17,289,37.1|10,,303.0,-0.6327409782609887
3061,260691,Pima Medical Institute at Mesa,Mesa,Arizona,2-year,Private,Associates--Private For-profit,,,-111.874242,33.39683,pmi.edu,1146,22.9,36.8,32.8,14171,21312,24795,26,100.0,1713,95,,,5009.0,73.0,,,40.6,52.0,72.7,77.0,49.5,19.0,72.7,65.0,59.4,73.0,,,,,,,,,,,,,,,,,,163736|230056|444121|410539|231642|126951|204626|105118|202161|123208|442444|230366|181941|445249|443739|430050|216436|212072|151184|373447,12,517,,,1525.0,-0.4598118030581531
1588,183257,Granite State College,Concord,New Hampshire,4-year,Public,Baccalaureate Colleges--Arts & Sciences,,,-71.527241,43.1929,www.granite.edu,1723,28.3,22.0,21.5,27453,58783,66436,7,53.3,1531,10,,,3683.0,3.0,1215.0,14.0,9.1,13.0,9.1,1.0,49.4,82.0,60.0,11.0,3.2,0.0,,,,,,,,,,,,,,,,,,230898|177339|245652|218441|138600|167835|179548|153126|163976|191676|183071|204802|230047|239512|160959|420352|161341|146481|210571|142294,5,252,14.5|07,,11.0,-0.6663920610031622
3223,405058,Yeshivas Novominsk,Brooklyn,New York,4-year,Private,Theological seminaries- Bible colleges- and other faith-related institutions,,,-73.989901,40.623611,,118,0.5,22.8,22.5,5282095,108407,101725,100,100.0,145,4,,,6022.0,13.0,,,0.0,0.0,5.6,0.0,33.1,40.0,79.6,63.0,100.0,95.0,,,,,,,,,,,,,,,,,,157030|176938|181376|137962|102261|444398|174206|194569|134510|208725|199458|176336|194718|179256|174525|198747|202903|176910|132408|222877,116,106,90.0|07,,18.0,-0.3019944566793491
1869,197027,United States Merchant Marine Academy,Kings Point,New York,4-year,Public,Baccalaureate Colleges--Diverse Fields,,,-73.762534,40.812154,www.usmma.edu,958,14.1,22.6,21.5,247945,71334,66436,100,100.0,1427,9,,,5352.0,35.0,,,62.1,96.0,73.6,92.0,7.6,0.0,97.3,99.0,86.4,93.0,,,,,,,,,,,,,,,,,,445267|130624|419572|231192|192855|262013|234960|385619|128328|441900|220701|228714|166692|112394|230852|200059|182634|214670|207403|206002,39,343,96.1|07,,277.0,-0.4063751299999796
2185,207069,Redlands Community College,El Reno,Oklahoma,2-year,Public,Associates--Public Suburban-serving Single Campus,,,-97.974592,35.518475,www.redlandscc.edu,2971,18.5,17.9,16.5,32919,37044,37780,35,26.3,1466,20,,,3710.0,39.0,330.0,32.0,12.4,63.0,16.8,36.0,33.3,28.0,48.8,14.0,28.1,35.0,,,,,,,,,,,,,,,,,,199421|198570|211079|129756|202648|207670|147411|174376|146603|185536|209250|198774|436304|213525|197294|203599|151041|109907|137209|112686,12,106,32.9|10,,340.0,-0.6621856756603905
3600,447263,AmeriTech College at Draper,Draper,Utah,4-year,Private,Associates--Private For-profit,,,-111.892792,40.527932,www.ameritech.edu,1036,20.9,30.1,24.6,0,39368,38763,0,100.0,1361,80,,,8486.0,97.0,,,,,,,58.6,26.0,,,16.9,46.0,,,,,,,,,,,,,,,,,,449658|155830|454245|371052|450058|131830|451769|183114|454236|447689|446774|448594|436429|188669|183123|244279|446561|451398|133155|446844,11,517,,,,0.08187715386099959
2694,227429,Paul Quinn College,Dallas,Texas,4-year,Private,Baccalaureate Colleges--Diverse Fields,X,,-96.755864,32.677195,www.pqc.edu,243,12.1,23.3,22.5,424668,84271,101725,99,88.9,187,6,775.0,1.0,6018.0,13.0,26972.0,62.0,1.0,0.0,4.9,0.0,78.6,95.0,57.1,11.0,29.0,17.0,,,,,,,,,,,,,,,,,,206491|133526|233499|199582|220604|106412|133979|106306|199643|107600|101675|102270|207209|177551|198862|218919|228884|229887|217721|243665,44,343,97.1|07,,102.0,-0.3026176248782782
755,146612,Lewis University,Romeoville,Illinois,4-year,Private,Masters Colleges and Universities--larger programs,,,-88.079032,41.605432,www.lewisu.edu,4613,24.7,24.2,22.5,53921,99440,101725,25,80.7,4313,90,1088.0,61.0,12141.0,40.0,8364.0,27.0,44.8,54.0,62.5,65.0,31.4,36.0,81.7,69.0,34.7,25.0,,,,,,,,,,,,,,,,,,240107|154235|149231|145619|221740|179557|148627|213826|148496|238430|196246|220978|201104|186283|136172|110529|165866|170806|167987|216931,50,386,56.4|07,,632.0,0.6512970956324989
1593,183859,Brookdale Community College,Lincroft,New Jersey,2-year,Public,Associates--Public Suburban-serving Single Campus,,,-74.132746,40.324906,www.brookdalecc.edu,14360,17.9,15.8,16.5,48104,49808,37780,70,51.7,10879,90,,,4113.0,56.0,128.0,11.0,8.2,44.0,21.4,54.0,28.0,17.0,68.6,88.0,33.3,52.0,,,,,,,,,,,,,,,,,,163657|172200|112172|123563|185873|111939|183743|146418|171225|173416|147378|173799|233754|174428|121044|247603|162104|129695|195058|245625,19,106,68.1|10,,3056.0,-0.5994014796182799
370,123952,Southern California Institute of Architecture,Los Angeles,California,4-year,Private,Schools of art- music- and design,,,-118.232703,34.04365,www.sciarc.edu,237,20.1,22.4,22.5,123696,125902,101725,80,95.8,255,10,1137.0,74.0,11937.0,39.0,2023.0,7.0,0.0,0.0,50.0,40.0,49.1,75.0,93.8,92.0,40.6,32.0,,,,,,,,,,,,,,,,,,167057|202073|122506|192712|164872|192110|113537|164933|211893|149639|217493|111081|122454|119775|143048|108232|138877|164526|140951|108870,74,114,100.0|07,,52.0,0.6195155174871129
439,128188,IntelliTec College at Grand Junction,Grand Junction,Colorado,2-year,Private,Associates--Private For-profit,,,-108.53062,39.116346,www.intellitec.edu,536,41.0,33.7,32.8,15497,21127,24795,28,100.0,1236,86,,,4212.0,45.0,,,52.0,67.0,52.0,32.0,63.5,35.0,79.3,80.0,100.0,94.0,,,,,,,,,,,,,,,,,,220118|249247|205559|406264|406219|213057|417549|439482|242112|414461|189583|376321|224660|132806|383950|205513|237978|419341|444042|242972,17,517,,,481.0,-0.5839780666947838
457,129756,Middlesex Community College (Conn.),Middletown,Connecticut,2-year,Public,Associates--Public Suburban-serving Single Campus,,,-72.611838,41.539516,www.mxcc.commnet.edu,2900,16.2,15.1,16.5,69121,57185,37780,90,37.6,1813,28,,,4636.0,71.0,165.0,15.0,5.6,28.0,14.4,27.0,62.9,91.0,62.4,71.0,20.0,11.0,,,,,,,,,,,,,,,,,,211079|202648|174376|199421|146603|207069|198774|198570|207670|197294|203599|151041|147411|137209|115001|213659|191339|185536|209250|148007,12,106,25.3|10,,374.0,-0.5179222376082953
1395,175272,Winona State University,Winona,Minnesota,4-year,Public,Masters Colleges and Universities--medium programs,,,-91.64447,44.046572,www.winona.edu,8253,20.4,20.9,21.5,50838,76061,66436,32,89.1,8088,59,,,4626.0,15.0,2081.0,27.0,29.8,68.0,56.1,71.0,26.9,18.0,78.3,65.0,62.0,48.0,,,,,,,,,,,,,,,,,,240480|232566|204936|137847|168786|106467|164562|215099|220215|133553|230995|174233|140669|220613|163462|240462|115755|159416|221768|178624,11,169,76.7|07,,1718.0,-0.5194801581056181
2573,220978,Middle Tennessee State University,Murfreesboro,Tennessee,4-year,Public,Doctoral/Research Universities,,,-86.362094,35.849139,www.mtsu.edu,21162,19.5,19.5,21.5,48916,76051,66436,28,82.1,19577,87,1011.0,45.0,6754.0,65.0,3501.0,44.0,16.1,33.0,45.6,49.0,44.9,71.0,68.4,31.0,72.5,71.0,,,,,,,,,,,,,,,,,,179557|110529|196246|221740|149231|136172|196200|154235|240107|146612|167987|145619|240365|173920|216764|186283|148627|213826|240189|196121,9,79,63.2|07,MTSU,3571.0,-0.18795467627531692
567,136516,Polk State College,Winter Haven,Florida,4-year,Public,Associates--Public Rural-serving Large,,,-81.712932,28.030775,www.polk.edu,11085,20.2,23.9,21.5,34331,34779,66436,10,34.7,7935,58,,,4669.0,17.0,1393.0,17.0,,,,,41.5,61.0,,,24.6,2.0,,,,,,,,,,,,,,,,,,146205|239372|105349|236708|233949|137096|148380|146506|104577|223427|130004|236656|155195|239488|123299|180902|136473|134608|132693|126207,36,128,46.2|07,,,-0.5127810999671298
3463,441636,American Institute of Alternative Medicine,Columbus,Ohio,2-year,Private,Not applicable- not in Carnegie universe,,,-82.988733,40.102442,www.aiam.edu,263,48.7,34.1,32.8,30066,35515,24795,67,83.7,252,22,,,294.0,0.0,,,61.1,76.0,72.2,76.0,61.7,32.0,71.4,61.0,26.5,29.0,,,,,,,,,,,,,,,,,,,42,81,23.5|10,,18.0,-1.194371317545874
1044,158662,Delgado Community College,New Orleans,Louisiana,2-year,Public,Associates--Public Urban-serving Multicampus,,,-90.103962,29.985149,www.dcc.edu,18698,12.3,21.9,16.5,32721,15389,37780,35,42.3,12843,93,,,4942.0,80.0,165.0,15.0,6.2,32.0,10.0,10.0,72.7,97.0,56.5,45.0,48.6,83.0,,,,,,,,,,,,,,,,,,184481|135391|190628|190673|190619|198260|218353|121363|193326|144209|224642|218894|227924|202356|440305|144166|246354|177995|218113|179292,16,125,49.3|10,,2559.0,-0.4702498703902162
423,127653,Naropa University,Boulder,Colorado,4-year,Private,Masters Colleges and Universities--larger programs,,,-105.267073,40.014816,www.naropa.edu,383,30.5,25.3,22.5,57978,62622,101725,29,93.5,350,14,,,16990.0,68.0,6936.0,23.0,19.7,14.0,40.9,23.0,47.3,71.0,58.3,13.0,29.1,17.0,,,,,,,,,,,,,,,,,,140818|137476|145336|199306|195137|262086|234915|225502|148584|104717|193016|196592|169716|245883|190716|187897|147536|405988|380465|217776,10,386,38.4|07,,66.0,1.4067327447843458
1767,192749,Manhattanville College,Purchase,New York,4-year,Private,Masters Colleges and Universities--larger programs,,,-73.718316,41.031054,www.manhattanville.edu,1719,21.5,22.8,22.5,74017,108407,101725,47,93.7,1822,62,1075.0,57.0,25647.0,91.0,4845.0,17.0,53.8,68.0,58.3,57.0,34.8,44.0,75.2,50.0,33.9,23.0,,,,,,,,,,,,,,,,,,207458|179043|121691|189705|227845|240329|236577|129242|190512|178059|156286|215770|163851|164270|143358|206622|236595|211088|139861|196194,116,386,88.1|07,,463.0,2.7554245193167315
2964,239008,Lakeshore Technical College,Cleveland,Wisconsin,2-year,Public,Associates--Public Rural-serving Medium,,,-87.75454,43.924774,www.gotoltc.edu,2930,36.5,22.8,16.5,37181,42745,37780,45,31.1,1767,27,,,3810.0,43.0,478.0,39.0,25.8,91.0,39.1,93.0,35.9,35.0,69.8,90.0,58.3,92.0,,,,,,,,,,,,,,,,,,196699|155566|114433|363633|165194|231536|139700|232867|227401|234696|239910|181312|148292|187903|117274|140243|148991|230597|154998|181491,17,289,22.8|10,,151.0,-0.646606470687162
2667,226116,Lamar State College at Port Arthur,Port Arthur,Texas,2-year,Public,Associates--Public Rural-serving Medium,,,-93.925514,29.880903,www.lamarpa.edu,2721,24.4,15.0,16.5,37703,40856,37780,46,35.1,1762,27,,,5682.0,89.0,623.0,45.0,6.9,35.0,17.2,37.0,34.2,30.0,56.7,46.0,58.9,93.0,,,,,,,,,,,,,,,,,,181817|155104|123484|173638|199087|235750|174756|157304|190442|233639|153922|198668|219426|155450|208275|199324|233903|206011|199740|198987,63,289,49.6|10,,406.0,-0.35496375358832577
1420,176169,Northeast Mississippi Community College,Booneville,Mississippi,2-year,Public,Associates--Public Rural-serving Medium,,,-88.562983,34.667833,www.nemcc.edu,3271,18.9,20.0,16.5,39978,40189,37780,52,82.8,3024,46,,,5754.0,90.0,1029.0,59.0,14.7,71.0,26.7,72.0,64.8,93.0,64.0,78.0,78.3,97.0,,,,,,,,,,,,,,,,,,238014|151014|240745|170587|141158|218520|156860|175935|198491|227225|207236|217712|207740|100760|178448|175883|173735|229319|140483|199892,15,289,78.9|10,,1241.0,-0.3437467260076013
2439,216782,Sanford-Brown Institute - Pittsburgh,Pittsburgh,Pennsylvania,2-year,Private,Associates--Private For-profit,,,-79.996164,40.442822,www.sanfordbrown.edu/pittsburgh,438,32.4,36.4,32.8,32639,26415,24795,72,55.5,665,64,,,5748.0,85.0,,,22.2,24.0,40.7,18.0,82.7,78.0,56.2,20.0,58.8,72.0,,,,,,,,,,,,,,,,,,374875|202189|261931|104984|377069|181756|174118|211617|170417|166276|398574|420404|211200|152415|214892|440642|444060|375416|445601|414841,56,517,,,297.0,-0.344681478305995
2691,227377,University of Texas at Brownsville,Brownsville,Texas,4-year,Public,Masters Colleges and Universities--medium programs,,,-97.486644,25.893584,www.utb.edu,11220,22.1,21.7,21.5,50930,54356,66436,32,51.8,8538,60,,,4851.0,23.0,1755.0,22.0,8.9,12.0,26.0,10.0,57.5,90.0,45.7,2.0,67.5,59.0,,,,,,,,,,,,,,,,,,240754|221953|237154|206914|161165|438610|144281|432232|169479|188304|225399|226231|152099|434946|104531|174020|226833|434955|188146|206862,35,169,59.6|07,UTB|TSC,986.0,-0.4844269469158541
1999,199953,Wilson Community College,Wilson,North Carolina,2-year,Public,Associates--Public Rural-serving Medium,,,-77.892872,35.731096,www.wilsoncc.edu,2117,13.3,14.8,16.5,57902,37924,37780,83,50.6,1682,25,,,4889.0,79.0,579.0,42.0,13.3,67.0,24.5,65.0,49.0,68.0,54.5,35.0,20.3,12.0,,,,,,,,,,,,,,,,,,161138|128258|180197|191302|168883|148821|408394|138558|232788|204422|178217|106980|184205|164313|228680|156648|146278|172307|139250|220057,59,289,36.7|10,,347.0,-0.47850684902602725
1071,160621,Southern University and A&M College,Baton Rouge,Louisiana,4-year,Public,Masters Colleges and Universities--larger programs,X,,-91.190105,30.524558,www.subr.edu,5746,14.6,18.4,21.5,70875,54322,66436,69,81.9,5113,42,,,5537.0,39.0,1437.0,17.0,8.1,9.0,31.8,19.0,62.8,95.0,67.4,27.0,62.6,49.0,,,,,,,,,,,,,,,,,,162007|199157|110486|110510|147776|227368|110574|227526|190637|185262|126182|110608|110556|110592|190600|212160|120184|192925|163453|226091,14,386,82.7|07,,1178.0,-0.377553600799507
2506,218830,Spartanburg Community College,Spartanburg,South Carolina,2-year,Public,Associates--Public Urban-serving Single Campus,,,-81.989975,34.974828,www.sccsc.edu,5864,12.2,13.4,16.5,48069,34557,37780,69,47.6,4309,61,,,6611.0,95.0,,,6.0,31.0,11.7,15.0,55.8,81.0,56.2,43.0,29.5,40.0,,,,,,,,,,,,,,,,,,151032|171304|129367|215239|175041|174136|107664|409315|138901|184995|203748|201928|150987|138840|165033|155292|195322|205470|167905|170055,20,31,43.2|10,,897.0,-0.21023293938703358
2211,207856,Southwestern Christian University,Bethany,Oklahoma,4-year,Private,Baccalaureate Colleges--Diverse Fields,,,-97.639411,35.513596,www.swcu.edu,804,33.2,21.9,22.5,32748,76127,101725,7,70.3,333,13,963.0,18.0,3790.0,4.0,2447.0,8.0,35.3,38.0,52.9,45.0,65.2,90.0,51.6,8.0,28.6,17.0,,,,,,,,,,,,,,,,,,199315|197610|193061|221856|192244|197674|205124|441511|197744|198677|193247|200484|186900|200873|194666|126076|192624|193070|176789|110918,12,343,60.0|07,,17.0,-0.6497223116818077
1512,180258,University of Great Falls,Great Falls,Montana,4-year,Private,Baccalaureate Colleges--Diverse Fields,,,-111.270167,47.490279,www.ugf.edu,1046,26.2,20.9,22.5,49372,83929,101725,20,63.6,869,31,,,10394.0,30.0,9626.0,32.0,16.9,10.0,29.2,9.0,42.1,60.0,68.9,32.0,40.8,33.0,,,,,,,,,,,,,,,,,,101693|402615|367884|438416|438601|226471|187648|440536|152336|106485|224402|150172|205203|119173|432241|219718|117627|202541|207324|157793,4,343,48.0|07,,130.0,0.37912838475019817
2417,216010,Shippensburg University of Pennsylvania,Shippensburg,Pennsylvania,4-year,Public,Masters Colleges and Universities--larger programs,,,-77.5229,40.057405,www.ship.edu/,6550,20.7,21.3,21.5,57495,81610,66436,50,94.9,6391,51,980.0,30.0,5536.0,39.0,4440.0,53.0,37.2,79.0,54.8,69.0,30.2,25.0,71.4,42.0,73.2,72.0,2010.0,43.0,4.9,21.3,15.0,59.4,12.6,1.2,7.1,61.7,6.0,3.9,9.0,65.4,8.7,1.2,5.1,130776|227881|155061|185590|240417|149772|101879|102094|159717|138789|156620|157951|187444|122755|161554|225627|110565|141334|196130|106458,41,386,80.2|07,,1720.0,-0.37770939284923927
1825,195544,St. Joseph's College (N.Y.),Brooklyn,New York,4-year,Private,Masters Colleges and Universities--medium programs,,,-73.968037,40.690485,www.sjcny.edu,4529,26.7,22.8,22.5,54919,108407,101725,27,79.3,4202,89,1054.0,50.0,8983.0,25.0,10819.0,36.0,55.7,71.0,71.8,79.0,31.6,37.0,83.7,75.0,31.2,20.0,,,,,,,,,,,,,,,,,,228042|236133|215284|202514|153001|201371|237118|237312|177144|237640|218645|140988|176947|144971|155627|221731|211981|107983|178341|148131,116,169,30.8|07,,670.0,0.1593058025779449
2678,226806,Midland College,Midland,Texas,4-year,Public,Associates--Public 4-year Primarily Associates,,,-102.10539,32.028578,www.midland.edu,5233,14.6,21.7,21.5,61003,54356,66436,55,29.4,3650,31,,,2813.0,1.0,8039.0,72.0,,,,,20.1,6.0,,,48.4,25.0,,,,,,,,,,,,,,,,,,148256|229841|194240|188137|190840|403478|197887|118684|234845|188100|127732|130004|236656|236188|146506|112561|233949|236258|238722|115393,35,34,36.6|07,,,-0.8019311442702496
1551,181765,University of Nebraska - Nebraska College of Technical Agriculture,Curtis,Nebraska,2-year,Public,Associates--Public 2-year colleges under 4-year universities,,,-100.510189,40.635528,ncta.unl.edu,300,29.4,16.9,16.5,48528,40345,37780,70,71.3,300,2,,,4015.0,52.0,699.0,48.0,52.3,99.0,52.3,97.0,32.3,26.0,66.7,84.0,61.5,93.0,,,,,,,,,,,,,,,,,,440402|445674|188225|106795|159407|201946|203483|200314|180276|201432|187620|237701|107619|180045|200846|180249|441760|179344|188049|204662,8,47,63.4|10,,128.0,-0.6146691004920438
1552,181783,Wayne State College,Wayne,Nebraska,4-year,Public,Masters Colleges and Universities--larger programs,,,-97.014241,42.241612,www.wsc.edu,2991,18.8,19.6,21.5,54301,59408,66436,42,91.4,2766,23,,,4821.0,21.0,4753.0,56.0,24.8,58.0,45.6,49.0,39.7,55.0,61.9,15.0,61.8,47.0,2010.0,23.1,5.3,28.9,18.4,47.6,11.8,1.3,10.0,50.3,7.6,6.5,11.9,55.1,12.4,2.7,5.9,430087|434955|188641|225399|434946|432232|188304|104531|161165|206862|237154|226833|188146|439163|177162|206914|211431|236896|164492|226231,6,386,74.3|07,,654.0,-0.4891007084078226
1023,157465,Daymar College - Owensboro,Owensboro,Kentucky,4-year,Private,Associates--Private For-profit,,,-87.143786,37.737809,www.daymarcollege.edu,122,38.8,28.0,24.6,40967,42765,38763,45,61.5,233,10,,,4043.0,34.0,,,,,,,65.6,40.0,,,17.5,47.0,,,,,,,,,,,,,,,,,,203739|445258|154776|211398|189565|118259|122834|445197|103644|205054|369862|222099|230472|366270|202204|442037|369853|157696|217244|193201,15,517,25.5|07,,,-0.6103069230995398
194,111638,Casa Loma College at Van Nuys,Van Nuys,California,2-year,Private,Associates--Private Not-for-profit,,,-118.448335,34.195438,www.casalomacollege.edu,606,39.9,34.1,25.9,35565,31169,34510,46,100.0,877,90,,,3756.0,30.0,,,11.1,11.0,59.5,57.0,70.6,67.0,62.5,45.0,55.0,56.0,,,,,,,,,,,,,,,,,,449117|447236|447634|450216|448600|452948|448442|439525|450207|448415|454591|420495|445726|406033|446905|372772|445346|413680|450155|450429,4,73,,,126.0,-0.6550192413727054
3484,442356,Lancaster General College of Nursing and Health Sciences,Lancaster,Pennsylvania,4-year,Private,Associates--Private Not-for-profit,,,-76.303042,40.044998,https://www.pacollege.edu/,1429,36.1,22.2,22.5,46734,110403,101725,16,36.4,1025,37,955.0,16.0,10266.0,30.0,1465.0,5.0,,,,,35.9,47.0,0.0,0.0,75.6,79.0,,,,,,,,,,,,,,,,,,222105|230418|166407|215390|118541|247649|189282|108852|189811|214582|130448|165264|195191|188678|202912|182908|126410|211149|213774|101648,82,73,53.4|07,,,0.35918700238446577
700,143279,Black Hawk College,Moline,Illinois,2-year,Public,Associates--Public Rural-serving Large,,,-90.449497,41.475983,www.bhc.edu,6574,12.4,14.6,16.5,50357,33727,37780,73,39.3,5086,68,,,4988.0,81.0,865.0,54.0,9.9,51.0,18.7,44.0,34.3,31.0,58.7,54.0,41.4,70.0,,,,,,,,,,,,,,,,,,384342|173461|146685|166823|142559|147916|174738|209074|154572|146348|229504|101514|153445|134343|170550|234979|146366|236887|153737|238759,48,128,37.0|10,,545.0,-0.4630834361025311
847,151458,International Business College at Fort Wayne,Fort Wayne,Indiana,4-year,Private,Baccalaureate/Associates Colleges,,,-85.25934,41.035246,www.ibcfortwayne.edu,406,57.2,26.7,24.6,16776,48576,38763,8,100.0,432,32,,,4737.0,64.0,,,77.1,95.0,77.1,94.0,64.7,38.0,100.0,91.0,65.2,94.0,,,,,,,,,,,,,,,,,,372958|214759|165802|161217|127024|204839|203474|214634|381787|214740|146676|404073|203447|140322|204820|237686|211477|404648|182865|108092,13,124,89.9|07,,70.0,-0.5021872405853345
45,102067,Shelton State Community College,Tuscaloosa,Alabama,2-year,Public,Associates--Public Rural-serving Large,X,,-87.56148,33.120531,www.sheltonstate.edu,5068,10.7,15.9,16.5,73406,42194,37780,92,48.7,4106,58,,,3626.0,35.0,,,4.3,18.0,8.2,5.0,52.2,76.0,58.5,54.0,41.4,70.0,,,,,,,,,,,,,,,,,,104160|176178|127884|157711|101286|150978|203155|167376|145682|151005|236692|193283|205841|153311|115861|101295|226578|226134|209940|140304,25,128,51.9|10,,923.0,-0.6752722078379024
1546,181534,Peru State College,Peru,Nebraska,4-year,Public,Masters Colleges and Universities--larger programs,,,-95.732731,40.474689,www.peru.edu,2158,20.9,19.6,21.5,41272,59408,66436,16,55.0,1495,10,,,4201.0,9.0,4472.0,53.0,19.3,42.0,40.1,33.0,33.0,32.0,58.2,9.0,49.5,27.0,2010.0,7.9,3.3,39.3,16.8,34.1,12.1,8.9,12.1,42.7,5.6,11.9,8.4,48.3,11.2,2.1,4.2,180948|137564|198835|219259|154013|190983|198969|204468|215947|221661|123651|150677|182661|156365|206835|219046|130183|174862|217633|219204,6,386,46.5|07,,197.0,-0.5856917792418389
2446,217077,YTI Career Institute at York,York,Pennsylvania,2-year,Private,Associates--Private For-profit,,,-76.660321,39.992432,www.yti.edu,2027,35.3,36.4,32.8,23131,26415,24795,50,100.0,2212,97,,,5069.0,74.0,,,58.4,73.0,63.5,57.0,67.7,45.0,83.0,88.0,55.9,70.0,,,,,,,,,,,,,,,,,,262332|240718|367413|428170|437750|138655|430157|369455|364973|178305|114123|367194|174482|423980|114390|111009|375841|144467|106041|114415,56,517,,,1196.0,-0.4504642800742161
3194,390701,Everest University-South Orlando Campus,Orlando,Florida,4-year,Private,Baccalaureate/Associates Colleges,,,-81.426942,28.434702,www.everest.edu/campus/south_orlando,29460,7.9,18.1,24.6,53647,46698,38763,64,52.1,27959,99,,,4869.0,68.0,,,27.7,67.0,35.4,71.0,85.9,96.0,36.4,16.0,3.0,1.0,,,,,,,,,,,,,,,,,,144883|206817|445355|136288|134149|438902|260293|153418|230630|260910|121381|168847|407285|241720|101116|414160|440484|367909|147165|366535,48,124,43.3|07,,65.0,-0.48162269002067293
1795,194240,Orange County Community College,Middletown,New York,2-year,Public,Associates--Public Rural-serving Large,,,-74.426885,41.439476,www.sunyorange.edu/,7029,16.4,18.0,16.5,77623,59231,37780,94,47.5,4742,65,,,4087.0,55.0,,,5.6,28.0,17.5,39.0,26.3,14.0,64.0,78.0,33.9,53.0,,,,,,,,,,,,,,,,,,229841|226806|148256|188137|190840|403478|197887|118684|188100|234845|127732|130004|236188|146506|236656|233949|112561|238722|115393|236258,35,128,61.4|10,,1277.0,-0.6034520729113193
3327,430351,"ITT Technical Institute (Mechanicsburg, Pa.)",Harrisburg,Pennsylvania,2-year,Private,Associates--Private For-profit,,,-76.814893,40.251462,www.itt-tech.edu,239,35.8,36.4,32.8,43711,26415,24795,85,77.8,229,18,,,4138.0,41.0,,,14.9,16.0,26.4,7.0,67.9,46.0,28.9,2.0,8.6,4.0,,,,,,,,,,,,,,,,,,126784|409333|436599|211316|441089|443377|200624|144467|106041|150251|417318|392257|217086|443623|200013|221148|138655|430157|210906|428170,56,517,76.6|10,,87.0,-0.5955066783749728
1798,194499,Plaza College,Jackson Heights,New York,4-year,Private,Baccalaureate/Associates Colleges,,,-73.891378,40.74926,www.plazacollege.edu,726,22.5,22.6,24.6,37846,54039,38763,38,100.0,1106,74,,,9473.0,98.0,,,,,,,85.0,95.0,,,25.0,66.0,,,,,,,,,,,,,,,,,,224679|197522|219903|439455|134875|215992|205522|204884|133997|160995|205726|205647|175528|205692|151166|404994|237437|205717|430935|442426,17,124,68.1|07,,,0.23564390694676426
1041,158431,Bossier Parish Community College,Bossier City,Louisiana,2-year,Public,Associates--Public Rural-serving Medium,,,-93.646881,32.539551,www.bpcc.edu,8464,17.0,21.9,16.5,27216,15389,37780,21,58.8,6209,75,,,4356.0,63.0,16.0,3.0,4.9,22.0,11.5,14.0,70.7,96.0,51.4,22.0,47.2,81.0,,,,,,,,,,,,,,,,,,171483|156231|175236|173203|135160|137315|224961|153296|153472|251260|240116|198118|221397|154059|219879|140085|192022|239220|153533|198710,16,289,65.0|10,,1221.0,-0.5615440115333348
1941,198862,Livingstone College,Salisbury,North Carolina,4-year,Private,Baccalaureate Colleges--Diverse Fields,X,,-80.484459,35.670743,www.livingstone.edu,1175,10.2,21.4,22.5,156199,148420,101725,88,99.1,1134,41,723.0,0.0,19402.0,76.0,1610.0,5.0,11.2,5.0,20.4,5.0,83.4,97.0,53.0,8.0,93.1,93.0,,,,,,,,,,,,,,,,,,177551|102270|229887|218919|217721|107600|101675|106306|228884|220604|133979|233499|218399|133526|206491|199582|227429|106412|199643|207209,43,343,99.4|07,,329.0,1.7825031687386157
2390,215099,Philadelphia University,Philadelphia,Pennsylvania,4-year,Private,Masters Colleges and Universities--larger programs,,,-75.194249,40.022281,www.philau.edu,2811,22.0,22.2,22.5,75675,110403,101725,48,90.0,2900,81,1062.0,53.0,15788.0,61.0,6773.0,23.0,44.9,54.0,58.3,57.0,30.3,34.0,74.6,48.0,20.8,9.0,,,,,,,,,,,,,,,,,,164562|133553|232566|140669|204936|174233|175272|162760|196112|137847|220613|159416|168786|192703|240480|220215|222178|106467|230995|176053,82,386,88.6|07,,738.0,1.21947070100614
1163,164775,Berkshire Community College,Pittsfield,Massachusetts,2-year,Public,Associates--Public Rural-serving Medium,,,-73.318843,42.460877,www.berkshirecc.edu,2400,17.9,16.9,16.5,70257,49931,37780,91,34.2,1483,21,,,3054.0,18.0,35.0,5.0,13.8,68.0,24.7,66.0,58.2,85.0,59.2,57.0,29.1,39.0,,,,,,,,,,,,,,,,,,199485|148672|101143|444954|154642|155098|199634|156790|220400|175263|198710|162168|206996|190053|127617|192022|238397|169974|140085|219879,16,289,35.2|10,,348.0,-0.764385260284769
1735,191302,Fulton-Montgomery Community College,Johnstown,New York,2-year,Public,Associates--Public Rural-serving Medium,,,-74.294146,42.983048,fmcc.edu,2781,20.7,18.0,16.5,56135,59231,37780,81,62.0,2043,32,,,4662.0,72.0,1025.0,58.0,18.1,80.0,27.0,73.0,51.2,74.0,55.4,39.0,43.0,74.0,,,,,,,,,,,,,,,,,,168883|148821|180197|138558|199953|161138|232788|204422|128258|178217|106980|184205|164313|408394|228680|156648|146278|172307|139250|220057,35,289,79.4|10,,675.0,-0.5138716443152558
2080,203474,Kent State University-Trumbull,Warren,Ohio,4-year,Public,Associates--Public 4-year Primarily Associates,,,-80.837363,41.279153,www.trumbull.kent.edu,3061,5.5,19.5,21.5,169362,74213,66436,99,30.3,1816,14,,,4016.0,7.0,,,6.3,6.0,20.8,6.0,61.0,94.0,54.8,6.0,49.6,27.0,,,,,,,,,,,,,,,,,,204839|165802|146676|214759|404073|214634|151458|372958|381787|161217|203447|127024|237686|214740|404648|140322|204820|414823|173629|211477,34,34,73.0|07,,207.0,-0.6145133084423116
3572,446048,Ave Maria University,Ave Maria,Florida,4-year,Private,Baccalaureate Colleges--Arts & Sciences,,,-81.441082,26.33711,www.avemaria.edu,906,16.8,24.2,22.5,148599,71929,101725,87,98.2,907,33,1070.0,55.0,15463.0,59.0,1670.0,6.0,54.7,70.0,57.7,56.0,32.1,38.0,69.8,34.0,79.2,82.0,,,,,,,,,,,,,,,,,,,47,252,34.2|07,,137.0,1.1688382848431476
184,110671,University of California at Riverside,Riverside,California,4-year,Public,Research Universities--very high research activity,,,-117.331098,33.97588,www.ucr.edu,18621,21.9,25.0,21.5,75265,79310,66436,74,97.8,18145,84,1078.0,69.0,16330.0,100.0,5387.0,60.0,41.0,83.0,66.2,83.0,56.4,90.0,89.0,92.0,81.4,87.0,,,,,,,,,,,,,,,,,,126562|236939|209542|104151|145600|187985|196060|180461|100663|141574|104179|126818|201885|107071|230764|153320|110529|219806|207582|220978,32,106,80.6|07,UCR,3701.0,1.3039099919610382
3209,404073,Baker College of Auburn Hills,Auburn Hills,Michigan,4-year,Private,Baccalaureate/Associates Colleges,,,-83.249027,42.659868,www.baker.edu,3082,26.0,24.2,22.5,0,54025,101725,0,42.5,2268,71,,,4392.0,6.0,8737.0,29.0,0.0,0.0,8.0,1.0,60.7,87.0,53.8,9.0,11.8,3.0,,,,,,,,,,,,,,,,,,146676|214634|381787|203474|203447|204839|237686|161217|165802|214759|151458|372958|404648|127024|214740|414823|140322|173629|437848|190655,39,124,38.5|07,,25.0,-0.5559354977429726
1452,177676,Jefferson College,Hillsboro,Missouri,2-year,Public,Associates--Public Suburban-serving Multicampus,,,-90.558954,38.259889,www.jeffco.edu,5194,20.4,16.5,16.5,40097,33283,37780,52,52.3,3975,57,,,3541.0,32.0,176.0,17.0,12.0,62.0,24.1,64.0,47.1,64.0,58.7,54.0,28.8,38.0,,,,,,,,,,,,,,,,,,153630|173708|225308|160719|448637|226204|187198|167312|208406|172954|183938|104346|136358|127200|170790|126289|154800|166887|158219|172963,14,99,61.4|10,,1214.0,-0.6885145320651466
2405,215585,Reading Area Community College,Reading,Pennsylvania,2-year,Public,Associates--Public Rural-serving Medium,,,-75.934701,40.3343,www.racc.edu,4538,13.0,15.6,16.5,77299,54524,37780,94,21.5,3066,47,,,2990.0,17.0,2888.0,85.0,1.9,3.0,8.6,6.0,60.3,88.0,47.9,12.0,25.3,26.0,,,,,,,,,,,,,,,,,,228316|223320|191986|220057|139250|172307|382911|164313|228680|184205|156648|191612|106980|178217|204422|232788|138558|171395|148821|168883,16,289,23.0|10,,420.0,-0.7743559514676353
1632,186876,Richard Stockton College of New Jersey,Galloway,New Jersey,4-year,Public,Masters Colleges and Universities--medium programs,,,-74.531087,39.492036,www.stockton.edu,7539,24.9,21.5,21.5,57039,76212,66436,49,92.2,7880,57,1068.0,64.0,7950.0,82.0,2730.0,36.0,42.2,85.0,65.5,82.0,35.6,41.0,86.8,87.0,48.0,24.0,2010.0,40.0,3.2,32.4,12.6,62.9,10.5,5.1,5.4,65.7,3.7,9.5,5.1,70.6,5.7,1.4,3.7,377555|213987|183910|238078|177065|203775|165671|238458|102234|173045|232609|213321|217536|217688|235167|173124|200253|174358|219198|155900,12,169,44.5|07,,794.0,-0.0016273847955048297
803,148937,Southeastern Illinois College,Harrisburg,Illinois,2-year,Public,Associates--Public Rural-serving Large,,,-88.435463,37.751271,www.sic.edu,1930,19.7,14.6,16.5,33619,33727,37780,37,42.0,1473,21,,,2300.0,5.0,2132.0,78.0,11.1,58.0,23.9,63.0,41.9,50.0,60.4,62.0,35.5,58.0,,,,,,,,,,,,,,,,,,170550|134343|153445|229504|238759|144564|146348|104425|154572|230861|209074|199333|173461|384342|101514|143279|170541|146685|166823|142559,48,128,14.1|10,,117.0,-0.8818524657829114
2232,209074,Linn-Benton Community College,Albany,Oregon,2-year,Public,Associates--Public Rural-serving Large,,,-123.115042,44.586996,www.linnbenton.edu,5617,16.4,16.9,16.5,48140,48188,37780,70,46.4,4511,62,,,4446.0,66.0,823.0,52.0,8.4,45.0,16.0,33.0,37.3,39.0,51.6,23.0,27.1,32.0,,,,,,,,,,,,,,,,,,154572|146348|229504|101514|153445|143279|134343|170550|146685|384342|166823|173461|142559|238759|147916|148937|230861|174738|199333|104425,17,128,36.0|10,,1460.0,-0.5475227270574292
1278,170532,Kalamazoo College,Kalamazoo,Michigan,4-year,Private,Baccalaureate Colleges--Arts & Sciences,,,-85.601317,42.290382,www.kzoo.edu,1458,21.5,24.2,22.5,119119,54025,101725,78,99.2,1446,51,1240.0,87.0,22194.0,86.0,132984.0,91.0,72.5,88.0,77.4,86.0,18.6,12.0,91.9,90.0,81.1,84.0,,,,,,,,,,,,,,,,,,221351|145646|156408|221519|233374|166018|195526|163912|213385|216524|228343|218070|212009|174844|238333|146427|222983|130590|164155|202523,39,252,91.7|07,,363.0,2.2174745715911537
1200,166656,Massachusetts College of Pharmacy and Health Sciences,Boston,Massachusetts,4-year,Private,Other health professions schools,,,-71.100964,42.337036,www.mcphs.edu,3897,22.6,22.3,22.5,64505,145629,101725,36,95.5,3675,87,1094.0,63.0,9491.0,26.0,55811.0,80.0,47.3,58.0,61.7,63.0,30.1,33.0,88.9,86.0,98.8,95.0,,,,,,,,,,,,,,,,,,122296|243823|215132|147590|174507|120698|235547|210438|173966|436094|445735|378576|177986|123633|414595|442842|228866|177038|439783|188526,63,43,64.6|07,,298.0,0.23844816384194537
1873,197142,Villa Maria College of Buffalo,Buffalo,New York,4-year,Private,Associates--Private Not-for-profit 4-year Primarily Associates,,,-78.795666,42.913045,www.villa.edu,465,21.8,22.8,22.5,70246,108407,101725,42,76.6,352,14,,,6443.0,14.0,3906.0,13.0,25.0,20.0,25.0,7.0,74.7,93.0,59.0,14.0,40.8,33.0,,,,,,,,,,,,,,,,,,225876|440794|195289|204592|191597|226329|106810|175227|129154|366261|212869|138761|115515|215381|166601|213376|195687|219055|201751|212975,116,7,62.9|07,,12.0,-0.23640600374205736
756,146667,Lincoln Christian University,Lincoln,Illinois,4-year,Private,Theological seminaries- Bible colleges- and other faith-related institutions,,,-89.34582,40.148897,www.lincolnchristian.edu,623,24.3,24.2,22.5,40349,99440,101725,12,82.0,569,22,996.0,27.0,6790.0,15.0,11240.0,37.0,31.4,32.0,42.2,25.0,51.6,79.0,67.1,28.0,38.1,30.0,,,,,,,,,,,,,,,,,,153320|213400|209287|157100|178208|155025|237525|155089|148487|167899|215442|238616|177968|204194|221892|212601|195164|173045|157401|170806,50,106,70.6|07,,102.0,-0.1823461624849547
368,123679,Concorde Career College - Garden Grove,Garden Grove,California,2-year,Private,Associates--Private For-profit,,,-117.938395,33.774741,www.concorde.edu,898,24.1,39.3,32.8,19205,23430,24795,39,100.0,1428,90,,,3740.0,21.0,,,64.1,82.0,91.5,97.0,63.7,35.0,65.4,43.0,42.2,55.0,,,,,,,,,,,,,,,,,,192509|438869|433420|122852|122685|216083|445115|251075|438966|440873|225858|404365|214290|409670|414850|247065|233091|182148|442408|173489,63,517,,,705.0,-0.657511914168422
2396,215275,University of Pittsburgh at Greensburg,Greensburg,Pennsylvania,4-year,Public,Baccalaureate Colleges--Arts & Sciences,,,-79.535757,40.292824,www.greensburg.pitt.edu/,1677,15.7,21.3,21.5,57681,81610,66436,50,93.3,1674,12,1017.0,47.0,7434.0,76.0,2585.0,34.0,33.1,74.0,53.3,65.0,52.0,86.0,83.0,79.0,80.0,83.0,,,,,,,,,,,,,,,,,,218724|204185|237969|203128|232025|127185|228981|231581|128391|101435|157076|155937|198950|441937|167288|147341|213668|147244|240277|199962,41,252,77.7|07,,486.0,-0.08201608245736355
831,150774,Holy Cross College,Notre Dame,Indiana,4-year,Private,Baccalaureate Colleges--Arts & Sciences,,,-86.253668,41.699982,www.hcc-nd.edu,524,16.1,23.8,22.5,118426,85638,101725,78,94.7,441,17,1014.0,33.0,20883.0,82.0,1504.0,5.0,42.0,49.0,44.9,31.0,33.3,40.0,64.7,22.0,45.5,40.0,,,,,,,,,,,,,,,,,,206154|133809|178891|141237|445708|165574|157632|151962|146621|367839|366906|444167|434539|244233|148876|406547|444088|404055|443562|180151,32,252,85.9|07,,176.0,2.013231194392129
258,117140,University of La Verne,La Verne,California,4-year,Private,Doctoral/Research Universities,,,-117.772634,34.10086,www.laverne.edu/,5216,25.1,22.4,22.5,49144,125902,101725,19,69.8,4476,91,1035.0,42.0,16346.0,64.0,6673.0,23.0,38.6,43.0,59.3,58.0,46.5,70.0,87.9,83.0,30.6,19.0,,,,,,,,,,,,,,,,,,168740|209612|231651|131113|173984|157757|149514|193654|106245|206279|220075|168421|436438|142276|413413|125231|241331|137148|110468|115083,74,79,38.3|07,,334.0,1.3064026647567546
1018,157377,Midway College,Midway,Kentucky,4-year,Private,Baccalaureate Colleges--Diverse Fields,,,-84.679335,38.144432,www.midway.edu,1247,25.0,20.4,22.5,55162,64209,101725,27,58.6,1187,42,1032.0,41.0,7085.0,17.0,19224.0,52.0,33.6,35.0,47.6,36.0,51.3,78.0,82.8,72.0,31.2,20.0,,,,,,,,,,,,,,,,,,385619|174385|243133|175430|201964|172440|436483|440767|442639|127699|155070|217907|243142|163921|430102|243151|384412|243179|180522|139205,21,343,57.4|07,,143.0,-0.1363875078139308
3574,446233,Ecclesia College,Springdale,Arkansas,4-year,Private,Theological seminaries- Bible colleges- and other faith-related institutions,,,-94.236643,36.2141,www.ecollege.edu/,178,11.4,19.4,22.5,99569,82509,101725,68,80.9,166,5,,,8307.0,21.0,69.0,0.0,17.4,10.0,17.4,4.0,50.0,76.0,47.2,4.0,15.2,4.0,,,,,,,,,,,,,,,,,,161208|454184|444626|454865|454616|448239|447458|183150|446385|244279|133155|440624|188669|183123|450137|428000|447689|446774|449348|451769,12,106,31.4|07,,23.0,0.053990376958920686
134,107637,Southeast Arkansas College,Pine Bluff,Arkansas,2-year,Public,Associates--Public Rural-serving Medium,,,-92.024731,34.209797,www.seark.edu,1601,27.6,23.6,16.5,21823,25729,37780,11,53.1,1251,15,,,4359.0,64.0,435.0,37.0,12.5,64.0,12.5,18.0,58.6,86.0,45.2,8.0,39.1,67.0,,,,,,,,,,,,,,,,,,107460|206923|199892|140483|139357|140599|100760|217712|237817|140678|227225|198491|151078|141255|175935|207050|170587|240745|141158|366465,22,289,53.1|10,,313.0,-0.561076635384138
2787,231165,Vermont Technical College,Randolph Center,Vermont,4-year,Public,Baccalaureate/Associates Colleges,,,-72.605179,43.939321,www.vtc.edu,1543,43.2,24.4,21.5,59065,95663,66436,52,68.0,1412,9,933.0,14.0,6011.0,48.0,,,28.9,66.0,37.8,29.0,38.5,50.0,69.9,37.0,45.0,19.0,,,,,,,,,,,,,,,,,,196042|196033|196006|196024|152363|198598|151306|218229|224527|162584|218690|216357|235097|230834|197911|240055|151102|211361|127565|198066,5,124,41.0|07,,45.0,-0.3037081692264042
1965,199263,Pamlico Community College,Grantsboro,North Carolina,2-year,Public,Associates--Public Rural-serving Small,,,-76.840785,35.138826,www.pamlicocc.edu,597,14.3,14.8,16.5,22180,37924,37780,11,33.7,430,3,,,5546.0,88.0,1180.0,62.0,66.7,100.0,66.7,100.0,32.3,26.0,52.1,25.0,31.0,46.0,,,,,,,,,,,,,,,,,,216296|199467|159443|160685|438708|160676|159090|420431|224891|154396|197966|159018|155618|232052|198729|366447|229328|140076|102076|159823,59,111,19.4|10,,30.0,-0.3761514723519164
812,149639,VanderCook College of Music,Chicago,Illinois,4-year,Private,Schools of art- music- and design,,,-87.629138,41.836833,www.vandercook.edu,133,17.9,24.2,22.5,59270,99440,101725,30,74.4,129,3,,,10481.0,31.0,,,38.5,43.0,69.2,76.0,40.3,57.0,70.8,37.0,100.0,95.0,,,,,,,,,,,,,,,,,,122506|192712|122454|111081|113537|119775|167057|202073|166489|214971|108232|164872|192110|110370|123952|143048|164933|199184|117168|214148,50,114,38.2|07,,26.0,0.3926822930769069
1867,196866,Union College (N.Y.),Schenectady,New York,4-year,Private,Baccalaureate Colleges--Arts & Sciences,,,-73.928498,42.817578,www.union.edu/,2246,24.7,22.8,22.5,188650,108407,101725,93,99.1,2075,69,1313.0,92.0,26624.0,92.0,172819.0,93.0,81.8,94.0,88.0,95.0,15.6,7.0,91.7,90.0,85.8,88.0,,,,,,,,,,,,,,,,,,384254|182917|128780|168281|121257|191630|239017|166124|124292|166939|167996|128902|240338|212577|166850|160977|195216|183275|214704|214698,116,252,94.0|07,,560.0,2.907633351905173
2963,238980,Lakeland College,Plymouth,Wisconsin,4-year,Private,Masters Colleges and Universities--larger programs,,,-87.884956,43.841863,www.lakeland.edu,2972,27.7,22.0,22.5,40271,73172,101725,11,34.5,1899,64,1007.0,31.0,8041.0,21.0,5260.0,18.0,36.5,40.0,50.8,42.0,34.8,44.0,69.5,34.0,18.2,7.0,,,,,,,,,,,,,,,,,,153366|161518|230834|193399|236452|218061|203085|232672|226383|207865|213783|176035|230913|167598|230603|206437|197045|155900|213613|183062,24,386,61.6|07,,181.0,0.012549691730133048
3264,414160,Baker College of Jackson,Jackson,Michigan,4-year,Private,Baccalaureate/Associates Colleges,,,-84.451226,42.278175,www.baker.edu,2239,18.9,24.2,22.5,0,54025,101725,0,47.8,1695,59,,,4307.0,6.0,9056.0,31.0,5.3,2.0,10.5,2.0,71.6,92.0,48.3,5.0,3.9,0.0,,,,,,,,,,,,,,,,,,440484|147165|366535|207254|168847|412599|367024|407285|240392|260910|381617|188340|219213|171298|168838|153418|190646|189459|103723|240790,39,124,32.0|07,,19.0,-0.5691778219702167
1444,177250,East Central College,Union,Missouri,2-year,Public,Associates--Public Suburban-serving Multicampus,,,-90.975535,38.430296,www.eastcentral.edu,3900,15.9,16.5,16.5,45340,33283,37780,64,47.5,2810,44,,,3629.0,35.0,1409.0,67.0,6.5,33.0,17.1,37.0,47.0,63.0,62.1,70.0,29.6,41.0,,,,,,,,,,,,,,,,,,105206|199494|170240|198622|139986|199786|126863|157438|101161|434672|136400|167631|226204|167312|244437|225308|177676|153630|244446|173708,14,99,42.2|10,,742.0,-0.6748048316887055
810,149514,Trinity International University,Deerfield,Illinois,4-year,Private,Doctoral/Research Universities,,,-87.882722,42.197909,www.tiu.edu,906,19.6,24.2,22.5,66975,99440,101725,39,82.1,852,31,1049.0,48.0,13836.0,50.0,27947.0,63.0,35.2,38.0,45.5,32.0,48.0,72.0,69.4,33.0,21.7,9.0,,,,,,,,,,,,,,,,,,209612|231651|117140|168740|131113|193654|115083|413413|436438|168421|173984|157757|125231|241331|137148|110468|444130|206279|106245|220075,50,79,50.0|07,,165.0,0.9153646199287209
1110,161873,University of Baltimore,Baltimore,Maryland,4-year,Public,Masters Colleges and Universities--larger programs,,,-76.616591,39.305834,www.ubalt.edu,3526,26.6,23.8,21.5,56061,55510,66436,46,58.5,2480,21,,,4549.0,14.0,8075.0,72.0,23.4,54.0,37.6,29.0,42.6,65.0,67.4,27.0,46.7,21.0,,,,,,,,,,,,,,,,,,,12,386,17.4|07,,141.0,-0.5314761459350039
1743,191649,Hofstra University,Hempstead,New York,4-year,Private,Doctoral/Research Universities,,,-73.60078,40.715959,www.hofstra.edu,6826,23.5,22.8,22.5,94129,108407,101725,64,93.4,6950,96,1165.0,79.0,16596.0,65.0,34752.0,69.0,49.5,61.0,62.1,64.0,22.6,19.0,78.3,58.0,46.6,42.0,,,,,,,,,,,,,,,,,,120883|174914|228875|122436|102049|121150|212106|228246|122612|144740|145813|139931|208822|131159|109785|188429|199193|165334|195809|194310,116,79,72.8|07,,1716.0,1.3453506771898258
2615,223472,Vet Tech Institute of Houston,Houston,Texas,2-year,Private,Associates--Private For-profit,,,-95.454505,29.728667,houston.vettechinstitute.edu,196,32.0,35.1,32.8,22788,18614,24795,49,100.0,386,38,,,3740.0,21.0,,,85.7,97.0,91.8,98.0,55.9,25.0,50.0,12.0,71.4,83.0,,,,,,,,,,,,,,,,,,450261|450429|372772|445726|406033|447582|454591|450207|452948|448600|448363|447069|450216|111638|449117|447236|447634|119438|206093|448442,37,517,47.6|10,,49.0,-0.657511914168422
3028,245430,Metro Business College,Jefferson City,Missouri,2-year,Private,Not applicable- not in Carnegie universe,,,-92.250241,38.58864,www.metrobusinesscollege.edu,142,58.4,36.2,32.8,9334,14611,24795,12,79.6,189,13,,,4880.0,70.0,,,50.9,65.0,50.9,30.0,83.6,80.0,77.8,76.0,64.3,78.0,,,,,,,,,,,,,,,,,,100733|100928|103529|105136|108056|110501|112376|112817|114831|115287|117681|117900|120023|121178|122320|122737|122782|123925|124557|125019,19,81,57.9|10,,55.0,-0.4799089774736178
3162,379782,Center for Advanced Legal Studies,Houston,Texas,4-year,Private,Associates--Private For-profit 4-year Primarily Associates,,,-95.41912,29.732118,www.paralegal.edu,125,38.3,23.9,24.6,19679,47221,38763,9,100.0,114,2,,,3648.0,13.0,,,,,,,61.7,32.0,,,18.8,50.0,,,,,,,,,,,,,,,,,,438498|445133|174154|406194|128683|220552|440165|429599|210076|443331|177579|407319|436191|251312|172866|386472|434557|432384|413857|437042,22,83,,,,-0.6718447827437921
449,129154,Goodwin College,East Hartford,Connecticut,4-year,Private,Associates--Private Not-for-profit,,,-72.6403,41.74405,www.goodwin.edu,3388,18.8,21.8,22.5,78856,188870,101725,50,17.5,3017,82,,,5806.0,12.0,2622.0,9.0,,,,,54.3,82.0,54.1,9.0,29.3,18.0,,,,,,,,,,,,,,,,,,175227|212869|204592|197142|225876|213376|215381|440794|195289|226329|191597|195687|106810|154262|366261|115515|213233|138761|191764|417734,15,73,21.9|07,,,-0.3356455394215225
718,144740,DePaul University,Chicago,Illinois,4-year,Private,Doctoral/Research Universities,,,-87.654116,41.923332,www.depaul.edu,16420,23.3,24.2,22.5,64199,99440,101725,35,82.8,15773,99,1163.0,79.0,15332.0,58.0,17773.0,50.0,54.2,69.0,70.5,78.0,34.5,44.0,85.4,78.0,50.3,47.0,,,,,,,,,,,,,,,,,,139931|145813|122612|208822|212106|109785|188429|102049|195809|194310|159647|166513|199139|169248|186584|150136|174914|138354|127741|209807,50,79,62.5|07,,2513.0,1.1484295263282183
3089,366252,Pennsylvania College of Technology,Williamsport,Pennsylvania,4-year,Public,Baccalaureate/Associates Colleges,,,-77.0265,41.2369,www.pct.edu,5678,28.4,21.3,21.5,80605,81610,66436,80,84.1,5291,43,,,5559.0,40.0,1670.0,21.0,27.3,64.0,42.4,39.0,40.2,57.0,70.3,39.0,61.4,46.0,,,,,,,,,,,,,,,,,,203526|230171|146393|204848|204866|173142|159382|122843|439288|207661|204486|194392|139463|214795|108092|182865|211477|129774|219578|420307,41,124,71.5|07,,384.0,-0.37412617570539675
144,108250,ITT Technical Institute at Rancho Cordova,Rancho Cordova,California,4-year,Private,Other technology-related schools,,,-121.281506,38.59172,www.itt-tech.edu,510,36.9,23.2,24.6,27102,53245,38763,16,75.9,574,48,,,4314.0,48.0,,,0.0,0.0,0.0,0.0,66.2,42.0,,,18.2,49.0,,,,,,,,,,,,,,,,,,372578|409069|244154|105172|398130|437936|368601|230384|116484|151500|135939|151519|238892|116466|208965|244011|151494|184269|437927|176637,64,54,80.8|07,,5.0,-0.5680872776220908
432,127839,Intellitec Medical Institute,Colorado Springs,Colorado,2-year,Private,Associates--Private For-profit,,,-104.814201,38.93097,www.intellitecmedical.edu/,339,19.8,33.7,32.8,28142,21127,24795,63,100.0,521,53,,,7685.0,98.0,,,63.4,80.0,63.4,57.0,72.9,57.0,61.8,32.0,36.2,44.0,,,,,,,,,,,,,,,,,,214838|438285|101958|134121|179511|427982|441502|158440|128179|441399|194967|408844|383950|237978|189583|444042|242972|439482|430935|205717,17,517,,,410.0,-0.04291227797456019
1459,178110,Metro Business College at Cape Girardeau,Cape Girardeau,Missouri,2-year,Private,Associates--Private For-profit,,,-89.565222,37.327199,www.metrobusinesscollege.edu,137,39.1,36.2,32.8,12263,14611,24795,20,90.5,159,8,,,6036.0,88.0,,,41.0,53.0,51.3,30.0,91.0,94.0,21.7,1.0,50.0,63.0,,,,,,,,,,,,,,,,,,443650|243841|105659|410070|441025|387925|434140|140003|205708|408039|151616|210359|148399|389727|206631|126401|190974|410283|200633|177302,19,517,100.0|10,,39.0,-0.2998133679830971
22,101462,J.F. Drake State Technical College,Huntsville,Alabama,2-year,Public,Associates--Public Rural-serving Small,X,,-86.573817,34.772116,www.drakestate.edu,1383,19.3,15.9,16.5,86504,42194,37780,96,45.9,921,9,,,3385.0,27.0,,,15.4,72.0,15.4,30.0,58.7,86.0,42.3,5.0,37.0,62.0,,,,,,,,,,,,,,,,,,217989|102313|175519|223922|180151|160001|161077|155201|420556|200341|231873|107521|160843|420723|158307|227687|160694|155487|420440|233037,25,111,26.5|10,,228.0,-0.712818091823383
3661,450155,Anthem College - Milwaukee,Brookfield,Wisconsin,2-year,Private,Associates--Private For-profit,,,-88.113686,43.026883,www.anthem.edu,286,31.6,31.6,32.8,33303,33303,24795,73,100.0,408,41,,,3953.0,31.0,,,63.1,79.0,79.8,90.0,70.7,53.0,81.3,85.0,60.0,74.0,,,,,,,,,,,,,,,,,,450234|413680|445346|446905|450207|377421|450252|452948|421878|448503|448600|454591|450216|434159|111638|448488|449117|447236|447634|448442,1,517,,,84.0,-0.6243282075754454
879,153108,Central College,Pella,Iowa,4-year,Private,Baccalaureate Colleges--Arts & Sciences,,,-92.918664,41.400236,www.central.edu,1386,21.2,25.0,22.5,99141,65365,101725,68,96.7,1512,53,1089.0,62.0,18566.0,74.0,47002.0,77.0,61.6,79.0,64.9,70.0,26.8,27.0,82.8,72.0,63.5,65.0,,,,,,,,,,,,,,,,,,154527|180106|154350|196219|220710|232256|233301|216278|197230|150668|233426|183239|209065|179946|239628|191533|145691|195474|218539|239716,31,252,93.6|07,,422.0,1.652261015162426
1488,179344,Missouri State University-West Plains,West Plains,Missouri,2-year,Public,Associates--Public 2-year colleges under 4-year universities,,,-91.857838,36.729574,www.wp.missouristate.edu,2123,19.0,16.5,16.5,39953,33283,37780,52,59.2,1484,21,,,1308.0,0.0,,,12.9,65.0,26.8,72.0,15.6,2.0,46.9,10.0,52.6,87.0,,,,,,,,,,,,,,,,,,188049|107619|203456|187958|203483|107725|440402|420538|181765|106999|445674|106795|188225|159407|201946|201432|180276|200314|187620|107585,14,47,60.4|10,,496.0,-1.0363981791173376
485,131159,American University,Washington,District of Columbia,4-year,Private,Doctoral/Research Universities,,,-77.090106,38.937802,www.american.edu,7340,23.5,22.6,22.5,82893,114865,101725,54,95.2,7098,96,1258.0,89.0,22266.0,86.0,45966.0,76.0,75.9,90.0,80.0,88.0,15.6,7.0,88.2,84.0,55.6,54.0,,,,,,,,,,,,,,,,,,228246|110097|121150|122436|120883|191649|164988|174914|164580|135726|186867|179159|131469|215293|196079|126775|228875|211273|233374|207971,8,79,79.7|07,,1284.0,2.228691599171878
2429,216436,"Triangle Tech (Pittsburgh, Pa.)",Pittsburgh,Pennsylvania,2-year,Private,Associates--Private For-profit,,,-80.012666,40.461988,www.triangle-tech.edu,251,35.4,36.4,32.8,35081,26415,24795,75,100.0,447,47,,,6659.0,92.0,,,0.0,0.0,72.9,78.0,78.9,71.0,71.1,59.0,100.0,94.0,,,,,,,,,,,,,,,,,,430050|445249|151184|181941|230366|442444|126951|123208|410539|151467|231642|444121|214315|380438|443535|230056|421708|163736|162681|119508,56,517,61.4|10,,96.0,-0.20275492099988393
2624,224147,Texas A&M University at Corpus Christi,Corpus Christi,Texas,4-year,Public,Doctoral/Research Universities,,,-97.331933,27.718601,www.tamucc.edu,9152,18.5,21.7,21.5,54712,54356,66436,43,79.1,7926,58,960.0,23.0,5072.0,28.0,1241.0,14.0,24.3,57.0,40.2,34.0,41.8,63.0,57.3,8.0,69.1,63.0,2010.0,19.3,5.5,2.3,2.3,42.6,16.5,1.2,5.4,58.0,6.5,1.5,0.7,64.7,11.0,0.7,2.1,406015|420042|372222|228529|434964|419509|101480|159993|139366|126827|219949|228431|172051|416962|405979|155812|180814|167729|177418|217776,35,79,65.4|07,,1512.0,-0.44999690392501923
